{
  "name": "Akwa Ibom",
  "slug": "akwa-ibom",
  "lgas": [
    {
      "name": "Abak",
      "slug": "akwa-ibom-abak",
      "markets": [
        {
          "name": "Abak Main Market Ikot Obiodo",
          "slug": "abak-main-market-ikot-obiodo",
          "coordinates": {
            "lat": 4.98209,
            "lng": 7.78872
          },
          "added_by": "GRID3 (racheal.olarewaju)",
          "local_name": "Abak Main Ikot Obiodo"
        },
        {
          "name": "Amadi Market Atan Midim, Abak",
          "slug": "amadi-market-atan-midim-abak",
          "coordinates": {
            "lat": 5.04523,
            "lng": 7.70416
          },
          "added_by": "GRID3 (racheal.olarewaju)",
          "local_name": "Amadi Atan Midim"
        },
        {
          "name": "Atim Nto Obo Nto Obo Ii, Abak",
          "slug": "atim-nto-obo-nto-obo-ii-abak",
          "coordinates": {
            "lat": 5.01164,
            "lng": 7.7104
          },
          "added_by": "GRID3 (racheal.olarewaju)",
          "local_name": "Nto Obo 2"
        },
        {
          "name": "Edet Obo Market Ikot Ifang, Abak",
          "slug": "edet-obo-market-ikot-ifang-abak",
          "coordinates": {
            "lat": 5.04083,
            "lng": 7.72053
          },
          "added_by": "GRID3 (racheal.olarewaju)",
          "local_name": "Edet Obo Ikot Ifang"
        },
        {
          "name": "Ekenyong Akpan Etok Uruk Obong, Abak",
          "slug": "ekenyong-akpan-etok-uruk-obong-abak",
          "coordinates": {
            "lat": 5.03389,
            "lng": 7.72819
          },
          "added_by": "GRID3 (racheal.olarewaju)",
          "local_name": "Ekenyong Akpan Etok Uruk Obong"
        },
        {
          "name": "Ekop Weekely Market Ikot Essien Etok, Abak",
          "slug": "ekop-weekely-market-ikot-essien-etok-abak",
          "coordinates": {
            "lat": 5.06273,
            "lng": 7.7892
          },
          "added_by": "GRID3 (racheal.olarewaju)",
          "local_name": "Ekop Weekely Ikot Essien Etok"
        },
        {
          "name": "Ekpehe Oton Market Ikot Obio Mkpong, Abak",
          "slug": "ekpehe-oton-market-ikot-obio-mkpong-abak",
          "coordinates": {
            "lat": 5.04508,
            "lng": 7.81887
          },
          "added_by": "GRID3 (racheal.olarewaju)",
          "local_name": "Ekpehe Oton Ikot Obio Mkpong"
        },
        {
          "name": "Etim Marice Ikot Inyang Ata Essien, Abak",
          "slug": "etim-marice-ikot-inyang-ata-essien-abak",
          "coordinates": {
            "lat": 5.04064,
            "lng": 7.68827
          },
          "added_by": "GRID3 (racheal.olarewaju)",
          "local_name": "Etim Marice Ikot Inyang Ata Essien"
        },
        {
          "name": "Eto Nkrok Market Ikot Udo Urom, Abak",
          "slug": "eto-nkrok-market-ikot-udo-urom-abak",
          "coordinates": {
            "lat": 5.03954,
            "lng": 7.73493
          },
          "added_by": "GRID3 (racheal.olarewaju)",
          "local_name": "Eto Nkrok Ikot Udo Urom"
        },
        {
          "name": "Etok Obo Ikot Udo Urom, Abak",
          "slug": "etok-obo-ikot-udo-urom-abak",
          "coordinates": {
            "lat": 5.04409,
            "lng": 7.73661
          },
          "added_by": "GRID3 (racheal.olarewaju)",
          "local_name": "Etok Obo Ikot Udo Urom"
        },
        {
          "name": "Idoro Market Uruk Uso, Abak",
          "slug": "idoro-market-uruk-uso-abak",
          "coordinates": {
            "lat": 5.03143,
            "lng": 7.78988
          },
          "added_by": "GRID3 (racheal.olarewaju)",
          "local_name": "Idoro Uruk Uso"
        },
        {
          "name": "Ikot Akpa Edem Market, Abak",
          "slug": "ikot-akpa-edem-market-abak",
          "coordinates": {
            "lat": 5.02813,
            "lng": 7.77811
          },
          "added_by": "GRID3 (racheal.olarewaju)",
          "local_name": "Ikot Akpa Edem"
        },
        {
          "name": "Ikot Ofon Market Ikot Ofon, Abak",
          "slug": "ikot-ofon-market-ikot-ofon-abak",
          "coordinates": {
            "lat": 4.95237,
            "lng": 7.81824
          },
          "added_by": "GRID3 (tosin.williams)",
          "local_name": "Ikot Ofon Ikot Ofon"
        },
        {
          "name": "Mami Market Ibagwa Ibagwa, Abak",
          "slug": "mami-market-ibagwa-ibagwa-abak",
          "coordinates": {
            "lat": 4.89784,
            "lng": 7.79614
          },
          "added_by": "GRID3 (racheal.olarewaju)",
          "local_name": "Mami Ibagwa Ibagwa"
        },
        {
          "name": "Morning Market Ikot Akpan Ikpong, Abak",
          "slug": "morning-market-ikot-akpan-ikpong-abak",
          "coordinates": {
            "lat": 5.07425,
            "lng": 7.73326
          },
          "added_by": "GRID3 (racheal.olarewaju)",
          "local_name": "Morning Ikot Akpan Ikpong"
        },
        {
          "name": "Nyemeiko Market Nto Otong, Abak",
          "slug": "nyemeiko-market-nto-otong-abak",
          "coordinates": {
            "lat": 5.02652,
            "lng": 7.735
          },
          "added_by": "GRID3 (racheal.olarewaju)",
          "local_name": "Nyemeiko Nto Otong"
        },
        {
          "name": "Obo Essien Ibiaakpan 2, Abak",
          "slug": "obo-essien-ibiaakpan-2-abak",
          "coordinates": {
            "lat": 5.06893,
            "lng": 7.79846
          },
          "added_by": "GRID3 (racheal.olarewaju)",
          "local_name": "Obo Essien Ibiaakpan 2"
        },
        {
          "name": "Offiong Market Itung Abak",
          "slug": "offiong-market-itung-abak",
          "coordinates": {
            "lat": 4.93249,
            "lng": 7.79126
          },
          "added_by": "GRID3 (racheal.olarewaju)",
          "local_name": "Offiong Itung Abak"
        },
        {
          "name": "Offiong Market Nto Otong, Abak",
          "slug": "offiong-market-nto-otong-abak",
          "coordinates": {
            "lat": 5.02817,
            "lng": 7.74657
          },
          "added_by": "GRID3 (racheal.olarewaju)",
          "local_name": "Offiong Nto Otong"
        },
        {
          "name": "Ukim Market Ikot Ekwere, Abak",
          "slug": "ukim-market-ikot-ekwere-abak",
          "coordinates": {
            "lat": 5.06509,
            "lng": 7.81036
          },
          "added_by": "GRID3 (racheal.olarewaju)",
          "local_name": "Ukim Ikot Ekwere"
        },
        {
          "name": "Urua Aditaha Ikot Afaha, Abak",
          "slug": "urua-aditaha-ikot-afaha-abak",
          "coordinates": {
            "lat": 4.91015,
            "lng": 7.79902
          },
          "added_by": "GRID3 (racheal.olarewaju)",
          "local_name": "Urua Aditaha Ikot Afaha"
        },
        {
          "name": "Urua Afa Market Ikot Essien Etok, Abak",
          "slug": "urua-afa-market-ikot-essien-etok-abak",
          "coordinates": {
            "lat": 5.07825,
            "lng": 7.78391
          },
          "added_by": "GRID3 (racheal.olarewaju)",
          "local_name": "Urua Afa Ikot Essien Etok"
        },
        {
          "name": "Urua Akete Afaha Esang, Abak",
          "slug": "urua-akete-afaha-esang-abak",
          "coordinates": {
            "lat": 5.05326,
            "lng": 7.71568
          },
          "added_by": "GRID3 (racheal.olarewaju)",
          "local_name": "Urua Akete Afaha Esang"
        },
        {
          "name": "Urua Akpan Ibom Ikot Uko, Abak",
          "slug": "urua-akpan-ibom-ikot-uko-abak",
          "coordinates": {
            "lat": 5.02765,
            "lng": 7.70551
          },
          "added_by": "GRID3 (racheal.olarewaju)",
          "local_name": "Urua Akpan Ibom Ikot Uko"
        },
        {
          "name": "Urua Anpa Eriam Afaha Obong, Abak",
          "slug": "urua-anpa-eriam-afaha-obong-abak",
          "coordinates": {
            "lat": 5.06339,
            "lng": 7.73628
          },
          "added_by": "GRID3 (racheal.olarewaju)",
          "local_name": "Urua Anpa Eriam Afaha Obong"
        },
        {
          "name": "Urua Atim Eriam Afaha Obong, Abak",
          "slug": "urua-atim-eriam-afaha-obong-abak",
          "coordinates": {
            "lat": 5.06038,
            "lng": 7.74111
          },
          "added_by": "GRID3 (racheal.olarewaju)",
          "local_name": "Urua Atim Eriam Afaha Obong"
        },
        {
          "name": "Urua Atim Ikot Udo Obio Iwok, Abak",
          "slug": "urua-atim-ikot-udo-obio-iwok-abak",
          "coordinates": {
            "lat": 5.04928,
            "lng": 7.75299
          },
          "added_by": "GRID3 (racheal.olarewaju)",
          "local_name": "Urua Atim Ikot Udo Obio Iwok"
        },
        {
          "name": "Urua Dupakpan Udo Ikot Ibit Ekpe, Abak",
          "slug": "urua-dupakpan-udo-ikot-ibit-ekpe-abak",
          "coordinates": {
            "lat": 5.05542,
            "lng": 7.76453
          },
          "added_by": "GRID3 (racheal.olarewaju)",
          "local_name": "Urua Dupakpan Udo Ikot Ibit Ekpe"
        },
        {
          "name": "Urua Edet Ebebit, Abak",
          "slug": "urua-edet-ebebit-abak",
          "coordinates": {
            "lat": 5.06328,
            "lng": 7.74748
          },
          "added_by": "GRID3 (racheal.olarewaju)",
          "local_name": "Urua Edet Ebebit"
        },
        {
          "name": "Urua Edet Ikot Ibom, Abak",
          "slug": "urua-edet-ikot-ibom-abak",
          "coordinates": {
            "lat": 5.06084,
            "lng": 7.77657
          },
          "added_by": "GRID3 (racheal.olarewaju)",
          "local_name": "Urua Edet Ikot Ibom"
        },
        {
          "name": "Urua Essien Ikot Obong, Abak",
          "slug": "urua-essien-ikot-obong-abak",
          "coordinates": {
            "lat": 5.04571,
            "lng": 7.76155
          },
          "added_by": "GRID3 (racheal.olarewaju)",
          "local_name": "Urua Essien Ikot Obong"
        },
        {
          "name": "Urua Ette Ukana Ikot Akpan Afia, Abak",
          "slug": "urua-ette-ukana-ikot-akpan-afia-abak",
          "coordinates": {
            "lat": 5.08099,
            "lng": 7.77915
          },
          "added_by": "GRID3 (racheal.olarewaju)",
          "local_name": "Urua Ette Ukana Ikot Akpan Afia"
        },
        {
          "name": "Urua Ibaya Ikot Inyang, Abak",
          "slug": "urua-ibaya-ikot-inyang-abak",
          "coordinates": {
            "lat": 5.06328,
            "lng": 7.76752
          },
          "added_by": "GRID3 (racheal.olarewaju)",
          "local_name": "Urua Ibaya Ikot Inyang"
        },
        {
          "name": "Urua Manamo Market Ntukuk, Abak",
          "slug": "urua-manamo-market-ntukuk-abak",
          "coordinates": {
            "lat": 5.02763,
            "lng": 7.75162
          },
          "added_by": "GRID3 (racheal.olarewaju)",
          "local_name": "Urua Manamo Ntukuk"
        },
        {
          "name": "Urua Mbakara Adiasim Atai, Abak",
          "slug": "urua-mbakara-adiasim-atai-abak",
          "coordinates": {
            "lat": 5.04937,
            "lng": 7.70663
          },
          "added_by": "GRID3 (racheal.olarewaju)",
          "local_name": "Urua Mbakara Adiasim Atai"
        },
        {
          "name": "Urua Nsan Edem Idim, Abak",
          "slug": "urua-nsan-edem-idim-abak",
          "coordinates": {
            "lat": 5.04494,
            "lng": 7.79095
          },
          "added_by": "GRID3 (racheal.olarewaju)",
          "local_name": "Urua Nsan Edem Idim"
        },
        {
          "name": "Urua Obo Ikot Ikot Ntuk, Abak",
          "slug": "urua-obo-ikot-ikot-ntuk-abak",
          "coordinates": {
            "lat": 5.00756,
            "lng": 7.71722
          },
          "added_by": "GRID3 (racheal.olarewaju)",
          "local_name": "Urua Obo Ikot Ikot Ntuk"
        },
        {
          "name": "Urua Obom Itung Abak",
          "slug": "urua-obom-itung-abak",
          "coordinates": {
            "lat": 4.91789,
            "lng": 7.78567
          },
          "added_by": "GRID3 (racheal.olarewaju)",
          "local_name": "Urua Obom Itung Abak"
        },
        {
          "name": "Urua Urom Ikot Ibit Ekpe, Abak",
          "slug": "urua-urom-ikot-ibit-ekpe-abak",
          "coordinates": {
            "lat": 5.05837,
            "lng": 7.76162
          },
          "added_by": "GRID3 (racheal.olarewaju)",
          "local_name": "Urua Urom Ikot Ibit Ekpe"
        },
        {
          "name": "Urua Usung Market Ata Ediene, Abak",
          "slug": "urua-usung-market-ata-ediene-abak",
          "coordinates": {
            "lat": 4.95242,
            "lng": 7.81787
          },
          "added_by": "GRID3 (tosin.williams)",
          "local_name": "Urua Usung Ata Ediene"
        },
        {
          "name": "Urua Uto Nto Obio Mkpe, Abak",
          "slug": "urua-uto-nto-obio-mkpe-abak",
          "coordinates": {
            "lat": 5.02452,
            "lng": 7.71845
          },
          "added_by": "GRID3 (racheal.olarewaju)",
          "local_name": "Urua Uto Nto Obio Mkpe"
        },
        {
          "name": "Weekely Market Ikot Ufen, Abak",
          "slug": "weekely-market-ikot-ufen-abak",
          "coordinates": {
            "lat": 5.04911,
            "lng": 7.77371
          },
          "added_by": "GRID3 (racheal.olarewaju)",
          "local_name": "Weekely Ikot Ufen"
        },
        {
          "name": "Weekly Market Abak Usung Atai",
          "slug": "weekly-market-abak-usung-atai",
          "coordinates": {
            "lat": 4.94481,
            "lng": 7.79632
          },
          "added_by": "GRID3 (racheal.olarewaju)",
          "local_name": "Weekly Abak Usung Atai"
        },
        {
          "name": "Weekly Market Abiakpo, Abak",
          "slug": "weekly-market-abiakpo-abak",
          "coordinates": {
            "lat": 5.054,
            "lng": 7.79324
          },
          "added_by": "GRID3 (racheal.olarewaju)",
          "local_name": "Weekly Abiakpo"
        },
        {
          "name": "Weekly Market Atai Otoro, Abak",
          "slug": "weekly-market-atai-otoro-abak",
          "coordinates": {
            "lat": 5.0324,
            "lng": 7.77849
          },
          "added_by": "GRID3 (racheal.olarewaju)",
          "local_name": "Weekly Atai Otoro"
        },
        {
          "name": "Weekly Market Ibiaakpan 2, Abak",
          "slug": "weekly-market-ibiaakpan-2-abak",
          "coordinates": {
            "lat": 5.07924,
            "lng": 7.80997
          },
          "added_by": "GRID3 (racheal.olarewaju)",
          "local_name": "Weekly Ibiaakpan 2"
        },
        {
          "name": "Weekly Market Ibong Otoro, Abak",
          "slug": "weekly-market-ibong-otoro-abak",
          "coordinates": {
            "lat": 5.09364,
            "lng": 7.77848
          },
          "added_by": "GRID3 (racheal.olarewaju)",
          "local_name": "Weekly Ibong Otoro"
        },
        {
          "name": "Weekly Market Ikot Ikpe, Abak",
          "slug": "weekly-market-ikot-ikpe-abak",
          "coordinates": {
            "lat": 5.04026,
            "lng": 7.72068
          },
          "added_by": "GRID3 (racheal.olarewaju)",
          "local_name": "Weekly Ikot Ikpe"
        },
        {
          "name": "Weekly Market Ikot Osom, Abak",
          "slug": "weekly-market-ikot-osom-abak",
          "coordinates": {
            "lat": 5.06879,
            "lng": 7.78861
          },
          "added_by": "GRID3 (racheal.olarewaju)",
          "local_name": "Weekly Ikot Osom"
        },
        {
          "name": "Weekly Market Ikot Udo Usung, Abak",
          "slug": "weekly-market-ikot-udo-usung-abak",
          "coordinates": {
            "lat": 5.01496,
            "lng": 7.82455
          },
          "added_by": "GRID3 (racheal.olarewaju)",
          "local_name": "Weekly Ikot Udo Usung"
        },
        {
          "name": "Weekly Market Ikotapan Adia, Abak",
          "slug": "weekly-market-ikotapan-adia-abak",
          "coordinates": {
            "lat": 5.04477,
            "lng": 7.81864
          },
          "added_by": "GRID3 (racheal.olarewaju)",
          "local_name": "Weekly Ikotapan Adia"
        },
        {
          "name": "Weekly Market Ikotobong Utu, Abak",
          "slug": "weekly-market-ikotobong-utu-abak",
          "coordinates": {
            "lat": 4.99999,
            "lng": 7.77844
          },
          "added_by": "GRID3 (racheal.olarewaju)",
          "local_name": "Weekly Ikotobong Utu"
        },
        {
          "name": "Weekly Market Nko Otoro, Abak",
          "slug": "weekly-market-nko-otoro-abak",
          "coordinates": {
            "lat": 5.08127,
            "lng": 7.78773
          },
          "added_by": "GRID3 (racheal.olarewaju)",
          "local_name": "Weekly Nko Otoro"
        }
      ]
    },
    {
      "name": "Eastern Obolo",
      "slug": "akwa-ibom-eastern-obolo",
      "markets": [
        {
          "name": "Beach Market Ama Theodore, Eastern Obolo",
          "slug": "beach-market-ama-theodore-eastern-obolo",
          "coordinates": {
            "lat": 4.50756,
            "lng": 7.7311
          },
          "added_by": "GRID3 (racheal.olarewaju)",
          "local_name": "Beach Ama Theodore"
        },
        {
          "name": "Iko Market Okoroirim, Eastern Obolo",
          "slug": "iko-market-okoroirim-eastern-obolo",
          "coordinates": {
            "lat": 4.52985,
            "lng": 7.75572
          },
          "added_by": "GRID3 (racheal.olarewaju)",
          "local_name": "Iko Okoroirim"
        },
        {
          "name": "Okoroette Market Okoroette Town, Eastern Obolo",
          "slug": "okoroette-market-okoroette-town-eastern-obolo",
          "coordinates": {
            "lat": 4.54104,
            "lng": 7.74911
          },
          "added_by": "GRID3 (racheal.olarewaju)",
          "local_name": "Okoroette Okoroette Town"
        }
      ]
    },
    {
      "name": "Eket",
      "slug": "akwa-ibom-eket",
      "markets": [
        {
          "name": "Abaeben Market Ikot Ataku, Eket",
          "slug": "abaeben-market-ikot-ataku-eket",
          "coordinates": {
            "lat": 4.67002,
            "lng": 7.90816
          },
          "added_by": "GRID3 (racheal.olarewaju)",
          "local_name": "Abaeben Ikot Ataku"
        },
        {
          "name": "Afaha Atai Market Afaha Atai, Eket",
          "slug": "afaha-atai-market-afaha-atai-eket",
          "coordinates": {
            "lat": 4.63527,
            "lng": 7.96311
          },
          "added_by": "GRID3 (racheal.olarewaju)",
          "local_name": "Afaha Atai Afaha Atai"
        },
        {
          "name": "Community Market Ikot Abasi Nya, Eket",
          "slug": "community-market-ikot-abasi-nya-eket",
          "coordinates": {
            "lat": 4.69788,
            "lng": 7.93984
          },
          "added_by": "GRID3 (racheal.olarewaju)",
          "local_name": "Ikot Abasi Nya"
        },
        {
          "name": "Daily Market Ikot Odiong Otung, Eket",
          "slug": "daily-market-ikot-odiong-otung-eket",
          "coordinates": {
            "lat": 4.71673,
            "lng": 7.91836
          },
          "added_by": "GRID3 (racheal.olarewaju)",
          "local_name": "Daily Ikot Odiong Otung"
        },
        {
          "name": "Fiongetok Atabong Market, Eket",
          "slug": "fiongetok-atabong-market-eket",
          "coordinates": {
            "lat": 4.6511,
            "lng": 7.92774
          },
          "added_by": "GRID3 (tosin.williams)",
          "local_name": "Fiongetok Atabong"
        },
        {
          "name": "Ikot Odiong Central Market Ikot Odiong, Eket",
          "slug": "ikot-odiong-central-market-ikot-odiong-eket",
          "coordinates": {
            "lat": 4.6679,
            "lng": 7.99622
          },
          "added_by": "GRID3 (racheal.olarewaju)",
          "local_name": "Ikot Odiong Central Ikot Odiong"
        },
        {
          "name": "Imoakpan Market Idua, Eket",
          "slug": "imoakpan-market-idua-eket",
          "coordinates": {
            "lat": 4.66157,
            "lng": 7.93961
          },
          "added_by": "GRID3 (tosin.williams)",
          "local_name": "Imoakpan Idua"
        },
        {
          "name": "Modern Mpp6 Market Edeobom Ii, Eket",
          "slug": "modern-mpp6-market-edeobom-ii-eket",
          "coordinates": {
            "lat": 4.69815,
            "lng": 7.95037
          },
          "added_by": "GRID3 (racheal.olarewaju)",
          "local_name": "Modern Mpp6 Edeobom Ii"
        },
        {
          "name": "Nsien Market Idung Enen Ikot Usoekong, Eket",
          "slug": "nsien-market-idung-enen-ikot-usoekong-eket",
          "coordinates": {
            "lat": 4.67628,
            "lng": 7.98395
          },
          "added_by": "GRID3 (racheal.olarewaju)",
          "local_name": "Nsien Idung Enen Ikot Usoekong"
        },
        {
          "name": "Obo Market Odoro Enen, Eket",
          "slug": "obo-market-odoro-enen-eket",
          "coordinates": {
            "lat": 4.66851,
            "lng": 7.9509
          },
          "added_by": "GRID3 (racheal.olarewaju)",
          "local_name": "Obo Odoro Enen"
        },
        {
          "name": "Okposin Market Ikot Usoekong, Eket",
          "slug": "okposin-market-ikot-usoekong-eket",
          "coordinates": {
            "lat": 4.66743,
            "lng": 7.9862
          },
          "added_by": "GRID3 (racheal.olarewaju)",
          "local_name": "Okposin Ikot Usoekong"
        },
        {
          "name": "Sand Market Ikot Ntung, Eket",
          "slug": "sand-market-ikot-ntung-eket",
          "coordinates": {
            "lat": 4.68537,
            "lng": 7.98587
          },
          "added_by": "GRID3 (racheal.olarewaju)",
          "local_name": "Sand Ikot Ntung"
        },
        {
          "name": "Timber Market Ataidung Usotai, Eket",
          "slug": "timber-market-ataidung-usotai-eket",
          "coordinates": {
            "lat": 4.66558,
            "lng": 7.97339
          },
          "added_by": "GRID3 (racheal.olarewaju)",
          "local_name": "Timber Ataidung Usotai"
        }
      ]
    },
    {
      "name": "Esit Eket",
      "slug": "akwa-ibom-esit-eket",
      "markets": [
        {
          "name": "Abidiak Market Idung Abidiak, Esit Eket",
          "slug": "abidiak-market-idung-abidiak-esit-eket",
          "coordinates": {
            "lat": 4.64896,
            "lng": 8.07539
          },
          "added_by": "GRID3 (racheal.olarewaju)",
          "local_name": "Abidiak Idung Abidiak"
        },
        {
          "name": "Affana Idung Imossan, Esit Eket",
          "slug": "affana-idung-imossan-esit-eket",
          "coordinates": {
            "lat": 4.65495,
            "lng": 8.12388
          },
          "added_by": "GRID3 (racheal.olarewaju)",
          "local_name": "Affana Idung Imossan"
        },
        {
          "name": "Ata Market Idung Aninih, Esit Eket",
          "slug": "ata-market-idung-aninih-esit-eket",
          "coordinates": {
            "lat": 4.66307,
            "lng": 8.03238
          },
          "added_by": "GRID3 (racheal.olarewaju)",
          "local_name": "Ata Idung Aninih"
        },
        {
          "name": "Edoatai Market Edo Atai, Esit Eket",
          "slug": "edoatai-market-edo-atai-esit-eket",
          "coordinates": {
            "lat": 4.64205,
            "lng": 8.01856
          },
          "added_by": "GRID3 (racheal.olarewaju)",
          "local_name": "Edoatai Edo Atai"
        },
        {
          "name": "Eyo Market Odoro Uku, Esit Eket",
          "slug": "eyo-market-odoro-uku-esit-eket",
          "coordinates": {
            "lat": 4.65748,
            "lng": 8.05852
          },
          "added_by": "GRID3 (tosin.williams)",
          "local_name": "Eyo Odoro Uku"
        },
        {
          "name": "Ikpa Market Ikpa, Esit Eket",
          "slug": "ikpa-market-ikpa-esit-eket",
          "coordinates": {
            "lat": 4.6575,
            "lng": 8.0494
          },
          "added_by": "GRID3 (tosin.williams)",
          "local_name": "Ikpa Ikpa"
        },
        {
          "name": "Mbakuyo Market Etebi Mbakuyo, Esit Eket",
          "slug": "mbakuyo-market-etebi-mbakuyo-esit-eket",
          "coordinates": {
            "lat": 4.66461,
            "lng": 8.11028
          },
          "added_by": "GRID3 (racheal.olarewaju)",
          "local_name": "Mbakuyo Etebi Mbakuyo"
        },
        {
          "name": "Mbubi Market Etebi Idung Asua, Esit Eket",
          "slug": "mbubi-market-etebi-idung-asua-esit-eket",
          "coordinates": {
            "lat": 4.67064,
            "lng": 8.11806
          },
          "added_by": "GRID3 (racheal.olarewaju)",
          "local_name": "Mbubi Etebi Idung Asua"
        },
        {
          "name": "Nkit Market Idoro Nkit, Esit Eket",
          "slug": "nkit-market-idoro-nkit-esit-eket",
          "coordinates": {
            "lat": 4.63075,
            "lng": 8.0838
          },
          "added_by": "GRID3 (racheal.olarewaju)",
          "local_name": "Nkit Idoro Nkit"
        },
        {
          "name": "Nku Etebi Akwata, Esit Eket",
          "slug": "nku-etebi-akwata-esit-eket",
          "coordinates": {
            "lat": 4.66341,
            "lng": 8.12087
          },
          "added_by": "GRID3 (racheal.olarewaju)",
          "local_name": "Nku Etebi Akwata"
        },
        {
          "name": "Ntak Inyang Market Ntak Inyang, Esit Eket",
          "slug": "ntak-inyang-market-ntak-inyang-esit-eket",
          "coordinates": {
            "lat": 4.6312,
            "lng": 8.1245
          },
          "added_by": "GRID3 (racheal.olarewaju)",
          "local_name": "Ntak Inyang Ntak Inyang"
        },
        {
          "name": "Obong Market Obong, Esit Eket",
          "slug": "obong-market-obong-esit-eket",
          "coordinates": {
            "lat": 4.65585,
            "lng": 8.12503
          },
          "added_by": "GRID3 (racheal.olarewaju)",
          "local_name": "Obong Obong"
        },
        {
          "name": "Uqua Market Uquo Isiedoho, Esit Eket",
          "slug": "uqua-market-uquo-isiedoho-esit-eket",
          "coordinates": {
            "lat": 4.65575,
            "lng": 8.04253
          },
          "added_by": "GRID3 (racheal.olarewaju)",
          "local_name": "Uqua Uquo Isiedoho"
        },
        {
          "name": "Uquo Market Ndon Edim, Esit Eket",
          "slug": "uquo-market-ndon-edim-esit-eket",
          "coordinates": {
            "lat": 4.66212,
            "lng": 8.0659
          },
          "added_by": "GRID3 (tosin.williams)",
          "local_name": "Uquo Ndon Edim"
        }
      ]
    },
    {
      "name": "Essien Udim",
      "slug": "akwa-ibom-essien-udim",
      "markets": [
        {
          "name": "Arua Atim Ikot Ibanga, Essien Udim",
          "slug": "arua-atim-ikot-ibanga-essien-udim",
          "coordinates": {
            "lat": 5.09934,
            "lng": 7.56404
          },
          "added_by": "GRID3 (racheal.olarewaju)",
          "local_name": "Arua Atim Ikot Ibanga"
        },
        {
          "name": "Chief Obot Eyo Udo Ikot Eyara, Essien Udim",
          "slug": "chief-obot-eyo-udo-ikot-eyara-essien-udim",
          "coordinates": {
            "lat": 5.11902,
            "lng": 7.70442
          },
          "added_by": "GRID3 (racheal.olarewaju)",
          "local_name": "Chief Obot Eyo Udo Ikot Eyara"
        },
        {
          "name": "Efvm Market Ekpenyong Ufum, Essien Udim",
          "slug": "efvm-market-ekpenyong-ufum-essien-udim",
          "coordinates": {
            "lat": 5.16264,
            "lng": 7.59472
          },
          "added_by": "GRID3 (racheal.olarewaju)",
          "local_name": "Efvm Ekpenyong Ufum"
        },
        {
          "name": "Eka Urua Atim Atai Essien Mkpatak, Essien Udim",
          "slug": "eka-urua-atim-atai-essien-mkpatak-essien-udim",
          "coordinates": {
            "lat": 5.05141,
            "lng": 7.68604
          },
          "added_by": "GRID3 (racheal.olarewaju)",
          "local_name": "Eka Urua Atim Atai Essien Mkpatak"
        },
        {
          "name": "Etok Urua Ebom Ikot Obong, Essien Udim",
          "slug": "etok-urua-ebom-ikot-obong-essien-udim",
          "coordinates": {
            "lat": 5.11827,
            "lng": 7.63601
          },
          "added_by": "GRID3 (racheal.olarewaju)",
          "local_name": "Etok Urua Ebom Ikot Obong"
        },
        {
          "name": "Nto Udo Market Urua Enen, Essien Udim",
          "slug": "nto-udo-market-urua-enen-essien-udim",
          "coordinates": {
            "lat": 5.05851,
            "lng": 7.62882
          },
          "added_by": "GRID3 (racheal.olarewaju)",
          "local_name": "Nto Udo Urua Enen"
        },
        {
          "name": "Timber Market Ukana Ikot Oku Etim, Essien Udim",
          "slug": "timber-market-ukana-ikot-oku-etim-essien-udim",
          "coordinates": {
            "lat": 5.14498,
            "lng": 7.71197
          },
          "added_by": "GRID3 (racheal.olarewaju)",
          "local_name": "Timber Ukana Ikot Oku Etim"
        },
        {
          "name": "Urua Afa Okon Ikot Oko Okon, Essien Udim",
          "slug": "urua-afa-okon-ikot-oko-okon-essien-udim",
          "coordinates": {
            "lat": 5.09071,
            "lng": 7.59487
          },
          "added_by": "GRID3 (racheal.olarewaju)",
          "local_name": "Urua Afa Okon Ikot Oko Okon"
        },
        {
          "name": "Urua Afai Usung Ukana Ikot Oku Etim, Essien Udim",
          "slug": "urua-afai-usung-ukana-ikot-oku-etim-essien-udim",
          "coordinates": {
            "lat": 5.14014,
            "lng": 7.71534
          },
          "added_by": "GRID3 (racheal.olarewaju)",
          "local_name": "Urua Afai Usung Ukana Ikot Oku Etim"
        },
        {
          "name": "Urua Akananwan Ikot Essien, Essien Udim",
          "slug": "urua-akananwan-ikot-essien-essien-udim",
          "coordinates": {
            "lat": 5.1007,
            "lng": 7.58877
          },
          "added_by": "GRID3 (racheal.olarewaju)",
          "local_name": "Urua Akananwan Ikot Essien"
        },
        {
          "name": "Urua Akpan Ikot Ada Utor, Essien Udim",
          "slug": "urua-akpan-ikot-ada-utor-essien-udim",
          "coordinates": {
            "lat": 5.13074,
            "lng": 7.62641
          },
          "added_by": "GRID3 (racheal.olarewaju)",
          "local_name": "Urua Akpan Ikot Ada Utor"
        },
        {
          "name": "Urua Akpan Udo Ikot Udom Mkpatak, Essien Udim",
          "slug": "urua-akpan-udo-ikot-udom-mkpatak-essien-udim",
          "coordinates": {
            "lat": 5.06516,
            "lng": 7.68461
          },
          "added_by": "GRID3 (racheal.olarewaju)",
          "local_name": "Urua Akpan Udo Ikot Udom Mkpatak"
        },
        {
          "name": "Urua Akpan Udoukana Ikpe Ekpene Oton, Essien Udim",
          "slug": "urua-akpan-udoukana-ikpe-ekpene-oton-essien-udim",
          "coordinates": {
            "lat": 5.12666,
            "lng": 7.75536
          },
          "added_by": "GRID3 (tosin.williams)",
          "local_name": "Urua Akpan Udoukana Ikpe Ekpene Oton"
        },
        {
          "name": "Urua Akpan Uko Ukana Nsasak, Essien Udim",
          "slug": "urua-akpan-uko-ukana-nsasak-essien-udim",
          "coordinates": {
            "lat": 5.09541,
            "lng": 7.70551
          },
          "added_by": "GRID3 (racheal.olarewaju)",
          "local_name": "Urua Akpan Uko Ukana Nsasak"
        },
        {
          "name": "Urua Akpan Umani Ukana Ikot Ide, Essien Udim",
          "slug": "urua-akpan-umani-ukana-ikot-ide-essien-udim",
          "coordinates": {
            "lat": 5.12154,
            "lng": 7.69204
          },
          "added_by": "GRID3 (racheal.olarewaju)",
          "local_name": "Urua Akpan Umani Ukana Ikot Ide"
        },
        {
          "name": "Urua Anwa Idip Ikot Akpan Ntia, Essien Udim",
          "slug": "urua-anwa-idip-ikot-akpan-ntia-essien-udim",
          "coordinates": {
            "lat": 5.10978,
            "lng": 7.71043
          },
          "added_by": "GRID3 (racheal.olarewaju)",
          "local_name": "Urua Anwa Idip Ikot Akpan Ntia"
        },
        {
          "name": "Urua Atim Ikot Ukpong Etor, Essien Udim",
          "slug": "urua-atim-ikot-ukpong-etor-essien-udim",
          "coordinates": {
            "lat": 5.16231,
            "lng": 7.61834
          },
          "added_by": "GRID3 (racheal.olarewaju)",
          "local_name": "Urua Atim Ikot Ukpong Etor"
        },
        {
          "name": "Urua Atim Ukana Ikot Ekon, Essien Udim",
          "slug": "urua-atim-ukana-ikot-ekon-essien-udim",
          "coordinates": {
            "lat": 5.10935,
            "lng": 7.71337
          },
          "added_by": "GRID3 (racheal.olarewaju)",
          "local_name": "Urua Atim Ukana Ikot Ekon"
        },
        {
          "name": "Urua Ebom Ikot Idem, Essien Udim",
          "slug": "urua-ebom-ikot-idem-essien-udim",
          "coordinates": {
            "lat": 5.13143,
            "lng": 7.59635
          },
          "added_by": "GRID3 (racheal.olarewaju)",
          "local_name": "Urua Ebom Ikot Idem"
        },
        {
          "name": "Urua Edet Akpan Ede Ekpenyong Ikot Ntuen, Essien Udim",
          "slug": "urua-edet-akpan-ede-ekpenyong-ikot-ntuen-essien-udim",
          "coordinates": {
            "lat": 5.07535,
            "lng": 7.70001
          },
          "added_by": "GRID3 (racheal.olarewaju)",
          "local_name": "Urua Edet Akpan Ede Ekpenyong Ikot Ntuen"
        },
        {
          "name": "Urua Edet Ikot Ekpenyong, Essien Udim",
          "slug": "urua-edet-ikot-ekpenyong-essien-udim",
          "coordinates": {
            "lat": 5.13147,
            "lng": 7.56724
          },
          "added_by": "GRID3 (racheal.olarewaju)",
          "local_name": "Urua Edet Ikot Ekpenyong"
        },
        {
          "name": "Urua Editaha Ikot Udoesenowo, Essien Udim",
          "slug": "urua-editaha-ikot-udoesenowo-essien-udim",
          "coordinates": {
            "lat": 5.08488,
            "lng": 7.64844
          },
          "added_by": "GRID3 (racheal.olarewaju)",
          "local_name": "Urua Editaha Ikot Udoesenowo"
        },
        {
          "name": "Urua Editaha Ukana Ikot Ofok, Essien Udim",
          "slug": "urua-editaha-ukana-ikot-ofok-essien-udim",
          "coordinates": {
            "lat": 5.1118,
            "lng": 7.74474
          },
          "added_by": "GRID3 (tosin.williams)",
          "local_name": "Urua Editaha Ukana Ikot Ofok"
        },
        {
          "name": "Urua Ekerka Ikot Esse, Essien Udim",
          "slug": "urua-ekerka-ikot-esse-essien-udim",
          "coordinates": {
            "lat": 5.10124,
            "lng": 7.65671
          },
          "added_by": "GRID3 (racheal.olarewaju)",
          "local_name": "Urua Ekerka Ikot Esse"
        },
        {
          "name": "Urua Ekpa Ikot Akpabio, Essien Udim",
          "slug": "urua-ekpa-ikot-akpabio-essien-udim",
          "coordinates": {
            "lat": 5.12277,
            "lng": 7.71036
          },
          "added_by": "GRID3 (racheal.olarewaju)",
          "local_name": "Urua Ekpa Ikot Akpabio"
        },
        {
          "name": "Urua Ekpoh Ikot Ebok, Essien Udim",
          "slug": "urua-ekpoh-ikot-ebok-essien-udim",
          "coordinates": {
            "lat": 5.11585,
            "lng": 7.5691
          },
          "added_by": "GRID3 (racheal.olarewaju)",
          "local_name": "Urua Ekpoh Ikot Ebok"
        },
        {
          "name": "Urua Enen Ikot Idem Udo, Essien Udim",
          "slug": "urua-enen-ikot-idem-udo-essien-udim",
          "coordinates": {
            "lat": 5.09392,
            "lng": 7.62345
          },
          "added_by": "GRID3 (racheal.olarewaju)",
          "local_name": "Urua Enen Ikot Idem Udo"
        },
        {
          "name": "Urua Enen Nto Okpo, Essien Udim",
          "slug": "urua-enen-nto-okpo-essien-udim",
          "coordinates": {
            "lat": 5.09395,
            "lng": 7.61895
          },
          "added_by": "GRID3 (racheal.olarewaju)",
          "local_name": "Urua Enen Nto Okpo"
        },
        {
          "name": "Urua Esa Ikot Nsang, Essien Udim",
          "slug": "urua-esa-ikot-nsang-essien-udim",
          "coordinates": {
            "lat": 5.06575,
            "lng": 7.69388
          },
          "added_by": "GRID3 (racheal.olarewaju)",
          "local_name": "Urua Esa Ikot Nsang"
        },
        {
          "name": "Urua Essien Adiasim Ikot Ambut, Essien Udim",
          "slug": "urua-essien-adiasim-ikot-ambut-essien-udim",
          "coordinates": {
            "lat": 5.08434,
            "lng": 7.70461
          },
          "added_by": "GRID3 (racheal.olarewaju)",
          "local_name": "Urua Essien Adiasim Ikot Ambut"
        },
        {
          "name": "Urua Essien Atan Ikot Okoro, Essien Udim",
          "slug": "urua-essien-atan-ikot-okoro-essien-udim",
          "coordinates": {
            "lat": 5.14658,
            "lng": 7.66052
          },
          "added_by": "GRID3 (racheal.olarewaju)",
          "local_name": "Urua Essien Atan Ikot Okoro"
        },
        {
          "name": "Urua Essien Ukana Ikot Osom, Essien Udim",
          "slug": "urua-essien-ukana-ikot-osom-essien-udim",
          "coordinates": {
            "lat": 5.11346,
            "lng": 7.72726
          },
          "added_by": "GRID3 (racheal.olarewaju)",
          "local_name": "Urua Essien Ukana Ikot Osom"
        },
        {
          "name": "Urua Etokobo Onuk Ikot Osom, Essien Udim",
          "slug": "urua-etokobo-onuk-ikot-osom-essien-udim",
          "coordinates": {
            "lat": 5.13856,
            "lng": 7.69405
          },
          "added_by": "GRID3 (racheal.olarewaju)",
          "local_name": "Urua Etokobo Onuk Ikot Osom"
        },
        {
          "name": "Urua Fiongetok Mbiabong Ikpe, Essien Udim",
          "slug": "urua-fiongetok-mbiabong-ikpe-essien-udim",
          "coordinates": {
            "lat": 5.12447,
            "lng": 7.77884
          },
          "added_by": "GRID3 (tosin.williams)",
          "local_name": "Urua Fiongetok Mbiabong Ikpe"
        },
        {
          "name": "Urua Fiongidiong Adiasim Ikot Udo, Essien Udim",
          "slug": "urua-fiongidiong-adiasim-ikot-udo-essien-udim",
          "coordinates": {
            "lat": 5.0757,
            "lng": 7.71142
          },
          "added_by": "GRID3 (racheal.olarewaju)",
          "local_name": "Urua Fiongidiong Adiasim Ikot Udo"
        },
        {
          "name": "Urua Idim Ikot Ekefre, Essien Udim",
          "slug": "urua-idim-ikot-ekefre-essien-udim",
          "coordinates": {
            "lat": 5.05939,
            "lng": 7.60052
          },
          "added_by": "GRID3 (racheal.olarewaju)",
          "local_name": "Urua Idim Ikot Ekefre"
        },
        {
          "name": "Urua Ikot Esa Adisaim Ikot Ekon, Essien Udim",
          "slug": "urua-ikot-esa-adisaim-ikot-ekon-essien-udim",
          "coordinates": {
            "lat": 5.06786,
            "lng": 7.70636
          },
          "added_by": "GRID3 (racheal.olarewaju)",
          "local_name": "Urua Ikot Esa Adisaim Ikot Ekon"
        },
        {
          "name": "Urua Ikot Ikot Udu, Essien Udim",
          "slug": "urua-ikot-ikot-udu-essien-udim",
          "coordinates": {
            "lat": 5.15402,
            "lng": 7.59227
          },
          "added_by": "GRID3 (racheal.olarewaju)",
          "local_name": "Urua Ikot Ikot Udu"
        },
        {
          "name": "Urua Ikot Nsiak, Essien Udim",
          "slug": "urua-ikot-nsiak-essien-udim",
          "coordinates": {
            "lat": 5.12308,
            "lng": 7.74246
          },
          "added_by": "GRID3 (tosin.williams)",
          "local_name": "Urua Ikot Nsiak"
        },
        {
          "name": "Urua Ikot Uso Ikot Eso, Essien Udim",
          "slug": "urua-ikot-uso-ikot-eso-essien-udim",
          "coordinates": {
            "lat": 5.11927,
            "lng": 7.72268
          },
          "added_by": "GRID3 (racheal.olarewaju)",
          "local_name": "Urua Ikot Uso Ikot Eso"
        },
        {
          "name": "Urua Mbakara Adiasim Ikot Udo, Essien Udim",
          "slug": "urua-mbakara-adiasim-ikot-udo-essien-udim",
          "coordinates": {
            "lat": 5.07187,
            "lng": 7.69988
          },
          "added_by": "GRID3 (racheal.olarewaju)",
          "local_name": "Urua Mbakara Adiasim Ikot Udo"
        },
        {
          "name": "Urua Ndioho Ikot Eyara, Essien Udim",
          "slug": "urua-ndioho-ikot-eyara-essien-udim",
          "coordinates": {
            "lat": 5.12122,
            "lng": 7.70422
          },
          "added_by": "GRID3 (racheal.olarewaju)",
          "local_name": "Urua Ndioho Ikot Eyara"
        },
        {
          "name": "Urua Nji Ikot Ekpenyong Okon, Essien Udim",
          "slug": "urua-nji-ikot-ekpenyong-okon-essien-udim",
          "coordinates": {
            "lat": 5.0508,
            "lng": 7.65246
          },
          "added_by": "GRID3 (racheal.olarewaju)",
          "local_name": "Urua Nji Ikot Ekpenyong Okon"
        },
        {
          "name": "Urua Nkokoro Afaha Ikot Ebak, Essien Udim",
          "slug": "urua-nkokoro-afaha-ikot-ebak-essien-udim",
          "coordinates": {
            "lat": 5.12808,
            "lng": 7.66019
          },
          "added_by": "GRID3 (racheal.olarewaju)",
          "local_name": "Urua Nkokoro Afaha Ikot Ebak"
        },
        {
          "name": "Urua Nsong Eto Ikot Inyang Udo, Essien Udim",
          "slug": "urua-nsong-eto-ikot-inyang-udo-essien-udim",
          "coordinates": {
            "lat": 5.0649,
            "lng": 7.64149
          },
          "added_by": "GRID3 (racheal.olarewaju)",
          "local_name": "Urua Nsong Eto Ikot Inyang Udo"
        },
        {
          "name": "Urua Nya Adiasim Ikot Ono, Essien Udim",
          "slug": "urua-nya-adiasim-ikot-ono-essien-udim",
          "coordinates": {
            "lat": 5.07143,
            "lng": 7.76259
          },
          "added_by": "GRID3 (racheal.olarewaju)",
          "local_name": "Urua Nya Adiasim Ikot Ono"
        },
        {
          "name": "Urua Nyomkeiko Idung Esimuk, Essien Udim",
          "slug": "urua-nyomkeiko-idung-esimuk-essien-udim",
          "coordinates": {
            "lat": 5.12087,
            "lng": 7.59582
          },
          "added_by": "GRID3 (racheal.olarewaju)",
          "local_name": "Urua Nyomkeiko Idung Esimuk"
        },
        {
          "name": "Urua Obo Annang Ukana Iboho, Essien Udim",
          "slug": "urua-obo-annang-ukana-iboho-essien-udim",
          "coordinates": {
            "lat": 5.07962,
            "lng": 7.73243
          },
          "added_by": "GRID3 (racheal.olarewaju)",
          "local_name": "Urua Obo Annang Ukana Iboho"
        },
        {
          "name": "Urua Obo Ikpe Oniong Ono, Essien Udim",
          "slug": "urua-obo-ikpe-oniong-ono-essien-udim",
          "coordinates": {
            "lat": 5.13377,
            "lng": 7.74811
          },
          "added_by": "GRID3 (tosin.williams)",
          "local_name": "Urua Obo Ikpe Oniong Ono"
        },
        {
          "name": "Urua Offiong Ikot Ndem, Essien Udim",
          "slug": "urua-offiong-ikot-ndem-essien-udim",
          "coordinates": {
            "lat": 5.08812,
            "lng": 7.70724
          },
          "added_by": "GRID3 (racheal.olarewaju)",
          "local_name": "Urua Offiong Ikot Ndem"
        },
        {
          "name": "Urua Ofiongaran Ukana Ikot Essien, Essien Udim",
          "slug": "urua-ofiongaran-ukana-ikot-essien-essien-udim",
          "coordinates": {
            "lat": 5.09324,
            "lng": 7.7469
          },
          "added_by": "GRID3 (racheal.olarewaju)",
          "local_name": "Urua Ofiongaran Ukana Ikot Essien"
        },
        {
          "name": "Urua Ofiongetor Ekpenyong Atai I, Essien Udim",
          "slug": "urua-ofiongetor-ekpenyong-atai-i-essien-udim",
          "coordinates": {
            "lat": 5.09125,
            "lng": 7.65298
          },
          "added_by": "GRID3 (racheal.olarewaju)",
          "local_name": "Urua Ofiongetor Ekpenyong Atai I"
        },
        {
          "name": "Urua Okon Ikot Ocho, Essien Udim",
          "slug": "urua-okon-ikot-ocho-essien-udim",
          "coordinates": {
            "lat": 5.08347,
            "lng": 7.60001
          },
          "added_by": "GRID3 (racheal.olarewaju)",
          "local_name": "Urua Okon Ikot Ocho"
        },
        {
          "name": "Urua Okpoewa Onuk Ikot Ngwo, Essien Udim",
          "slug": "urua-okpoewa-onuk-ikot-ngwo-essien-udim",
          "coordinates": {
            "lat": 5.1331,
            "lng": 7.70138
          },
          "added_by": "GRID3 (racheal.olarewaju)",
          "local_name": "Urua Okpoewa Onuk Ikot Ngwo"
        },
        {
          "name": "Urua Okpoi Ukana Ikot Akpabin, Essien Udim",
          "slug": "urua-okpoi-ukana-ikot-akpabin-essien-udim",
          "coordinates": {
            "lat": 5.08061,
            "lng": 7.75523
          },
          "added_by": "GRID3 (racheal.olarewaju)",
          "local_name": "Urua Okpoi Ukana Ikot Akpabin"
        },
        {
          "name": "Urva Atim Nto Akpa Oko, Essien Udim",
          "slug": "urva-atim-nto-akpa-oko-essien-udim",
          "coordinates": {
            "lat": 5.13468,
            "lng": 7.57883
          },
          "added_by": "GRID3 (racheal.olarewaju)",
          "local_name": "Urva Atim Nto Akpa Oko"
        },
        {
          "name": "Urva Editaha Ikot Otu, Essien Udim",
          "slug": "urva-editaha-ikot-otu-essien-udim",
          "coordinates": {
            "lat": 5.17002,
            "lng": 7.63555
          },
          "added_by": "GRID3 (racheal.olarewaju)",
          "local_name": "Urva Editaha Ikot Otu"
        },
        {
          "name": "Urva Mbakara Ikot Umo Essien, Essien Udim",
          "slug": "urva-mbakara-ikot-umo-essien-essien-udim",
          "coordinates": {
            "lat": 5.14104,
            "lng": 7.54304
          },
          "added_by": "GRID3 (racheal.olarewaju)",
          "local_name": "Urva Mbakara Ikot Umo Essien"
        },
        {
          "name": "Urva Obo Ikot Ankan, Essien Udim",
          "slug": "urva-obo-ikot-ankan-essien-udim",
          "coordinates": {
            "lat": 5.16593,
            "lng": 7.62681
          },
          "added_by": "GRID3 (racheal.olarewaju)",
          "local_name": "Urva Obo Ikot Ankan"
        },
        {
          "name": "Urva Ofiongetor Ikot Afanga, Essien Udim",
          "slug": "urva-ofiongetor-ikot-afanga-essien-udim",
          "coordinates": {
            "lat": 5.15848,
            "lng": 7.64732
          },
          "added_by": "GRID3 (racheal.olarewaju)",
          "local_name": "Urva Ofiongetor Ikot Afanga"
        },
        {
          "name": "Urva Sam Ikot Ineme, Essien Udim",
          "slug": "urva-sam-ikot-ineme-essien-udim",
          "coordinates": {
            "lat": 5.1469,
            "lng": 7.55939
          },
          "added_by": "GRID3 (racheal.olarewaju)",
          "local_name": "Urva Sam Ikot Ineme"
        },
        {
          "name": "Weekly Market Ikot Ata Udo, Essien Udim",
          "slug": "weekly-market-ikot-ata-udo-essien-udim",
          "coordinates": {
            "lat": 5.12535,
            "lng": 7.77993
          },
          "added_by": "GRID3 (tosin.williams)",
          "local_name": "Weekly Ikot Ata Udo"
        }
      ]
    },
    {
      "name": "Etim Ekpo",
      "slug": "akwa-ibom-etim-ekpo",
      "markets": [
        {
          "name": "Aanla Ukat Market Urukata Ikot Isemin, Etim Ekpo",
          "slug": "aanla-ukat-market-urukata-ikot-isemin-etim-ekpo",
          "coordinates": {
            "lat": 5.00846,
            "lng": 7.6316
          },
          "added_by": "GRID3 (racheal.olarewaju)",
          "local_name": "Aanla Ukat Urukata Ikot Isemin"
        },
        {
          "name": "Aditaha Market Uruk Ata Nsidung, Etim Ekpo",
          "slug": "aditaha-market-uruk-ata-nsidung-etim-ekpo",
          "coordinates": {
            "lat": 4.98284,
            "lng": 7.7148
          },
          "added_by": "GRID3 (racheal.olarewaju)",
          "local_name": "Aditaha Uruk Ata Nsidung"
        },
        {
          "name": "Affiong Etor Market Ntak Inyang, Etim Ekpo",
          "slug": "affiong-etor-market-ntak-inyang-etim-ekpo",
          "coordinates": {
            "lat": 5.01948,
            "lng": 7.6705
          },
          "added_by": "GRID3 (racheal.olarewaju)",
          "local_name": "Affiong Etor Ntak Inyang"
        },
        {
          "name": "Atim Ndioho Market Esa Obong, Etim Ekpo",
          "slug": "atim-ndioho-market-esa-obong-etim-ekpo",
          "coordinates": {
            "lat": 4.99442,
            "lng": 7.66642
          },
          "added_by": "GRID3 (racheal.olarewaju)",
          "local_name": "Atim Ndioho Esa Obong"
        },
        {
          "name": "Edem Akai Market Edem Akai, Etim Ekpo",
          "slug": "edem-akai-market-edem-akai-etim-ekpo",
          "coordinates": {
            "lat": 4.94076,
            "lng": 7.51952
          },
          "added_by": "GRID3 (racheal.olarewaju)",
          "local_name": "Edem Akai Edem Akai"
        },
        {
          "name": "Edisaha Utu Market Utu Ikot Eboro, Etim Ekpo",
          "slug": "edisaha-utu-market-utu-ikot-eboro-etim-ekpo",
          "coordinates": {
            "lat": 4.95454,
            "lng": 7.68827
          },
          "added_by": "GRID3 (racheal.olarewaju)",
          "local_name": "Edisaha Utu Utu Ikot Eboro"
        },
        {
          "name": "Eka Offisoh Market Ikot Obio Nta, Etim Ekpo",
          "slug": "eka-offisoh-market-ikot-obio-nta-etim-ekpo",
          "coordinates": {
            "lat": 5.01972,
            "lng": 7.67164
          },
          "added_by": "GRID3 (racheal.olarewaju)",
          "local_name": "Eka Offisoh Ikot Obio Nta"
        },
        {
          "name": "Ekenyong Market Nkwot Ikono, Etim Ekpo",
          "slug": "ekenyong-market-nkwot-ikono-etim-ekpo",
          "coordinates": {
            "lat": 5.01863,
            "lng": 7.65039
          },
          "added_by": "GRID3 (racheal.olarewaju)",
          "local_name": "Ekenyong Nkwot Ikono"
        },
        {
          "name": "Enen Akpan Okoko Market Ikot Akpan Awak, Etim Ekpo",
          "slug": "enen-akpan-okoko-market-ikot-akpan-awak-etim-ekpo",
          "coordinates": {
            "lat": 5.00518,
            "lng": 7.68225
          },
          "added_by": "GRID3 (racheal.olarewaju)",
          "local_name": "Enen Akpan Okoko Ikot Akpan Awak"
        },
        {
          "name": "Enen Market Ikot Idem Udo, Etim Ekpo",
          "slug": "enen-market-ikot-idem-udo-etim-ekpo",
          "coordinates": {
            "lat": 4.96274,
            "lng": 7.62973
          },
          "added_by": "GRID3 (racheal.olarewaju)",
          "local_name": "Enen Ikot Idem Udo"
        },
        {
          "name": "Essien Junction Market Uruk Ata Ikot Akpankpan, Etim Ekpo",
          "slug": "essien-junction-market-uruk-ata-ikot-akpankpan-etim-ekpo",
          "coordinates": {
            "lat": 4.98509,
            "lng": 7.58964
          },
          "added_by": "GRID3 (racheal.olarewaju)",
          "local_name": "Essien Junction Uruk Ata Ikot Akpankpan"
        },
        {
          "name": "Etim Udom Market Abat Town, Etim Ekpo",
          "slug": "etim-udom-market-abat-town-etim-ekpo",
          "coordinates": {
            "lat": 4.95516,
            "lng": 7.68349
          },
          "added_by": "GRID3 (racheal.olarewaju)",
          "local_name": "Etim Udom Abat Town"
        },
        {
          "name": "Eyeneto Market Ikot Obioma, Etim Ekpo",
          "slug": "eyeneto-market-ikot-obioma-etim-ekpo",
          "coordinates": {
            "lat": 4.92797,
            "lng": 7.51671
          },
          "added_by": "GRID3 (racheal.olarewaju)",
          "local_name": "Eyeneto Ikot Obioma"
        },
        {
          "name": "Ikot Ese Market Ikot Ese, Etim Ekpo",
          "slug": "ikot-ese-market-ikot-ese-etim-ekpo",
          "coordinates": {
            "lat": 4.94449,
            "lng": 7.5456
          },
          "added_by": "GRID3 (racheal.olarewaju)",
          "local_name": "Ikot Ese Ikot Ese"
        },
        {
          "name": "Ikot Nya Market Etim Ekpo",
          "slug": "ikot-nya-market-etim-ekpo",
          "coordinates": {
            "lat": 4.95526,
            "lng": 7.53871
          },
          "added_by": "GRID3 (racheal.olarewaju)",
          "local_name": "Ikot Nya Etim Ekpo"
        },
        {
          "name": "Ikpe Market Ikpe Annang, Etim Ekpo",
          "slug": "ikpe-market-ikpe-annang-etim-ekpo",
          "coordinates": {
            "lat": 4.87971,
            "lng": 7.50433
          },
          "added_by": "GRID3 (racheal.olarewaju)",
          "local_name": "Ikpe Ikpe Annang"
        },
        {
          "name": "Iwukem Junction Market Iwukem, Etim Ekpo",
          "slug": "iwukem-junction-market-iwukem-etim-ekpo",
          "coordinates": {
            "lat": 4.93967,
            "lng": 7.49503
          },
          "added_by": "GRID3 (racheal.olarewaju)",
          "local_name": "Iwukem Junction Iwukem"
        },
        {
          "name": "Jonathan Market Utu Nsekeihe, Etim Ekpo",
          "slug": "jonathan-market-utu-nsekeihe-etim-ekpo",
          "coordinates": {
            "lat": 4.96358,
            "lng": 7.68404
          },
          "added_by": "GRID3 (racheal.olarewaju)",
          "local_name": "Jonathan Utu Nsekeihe"
        },
        {
          "name": "Mboho Annang Market Otoro Obong, Etim Ekpo",
          "slug": "mboho-annang-market-otoro-obong-etim-ekpo",
          "coordinates": {
            "lat": 4.91285,
            "lng": 7.51193
          },
          "added_by": "GRID3 (racheal.olarewaju)",
          "local_name": "Mboho Annang Otoro Obong"
        },
        {
          "name": "Mini Market Utu Nsekeihe, Etim Ekpo",
          "slug": "mini-market-utu-nsekeihe-etim-ekpo",
          "coordinates": {
            "lat": 4.97958,
            "lng": 7.691
          },
          "added_by": "GRID3 (racheal.olarewaju)",
          "local_name": "Mini Utu Nsekeihe"
        },
        {
          "name": "Nya Market Ikpe Annang, Etim Ekpo",
          "slug": "nya-market-ikpe-annang-etim-ekpo",
          "coordinates": {
            "lat": 4.88772,
            "lng": 7.51388
          },
          "added_by": "GRID3 (racheal.olarewaju)",
          "local_name": "Nya Ikpe Annang"
        },
        {
          "name": "Obo Essien Market Uruk Ata Ikot Eboh, Etim Ekpo",
          "slug": "obo-essien-market-uruk-ata-ikot-eboh-etim-ekpo",
          "coordinates": {
            "lat": 5.00545,
            "lng": 7.68254
          },
          "added_by": "GRID3 (racheal.olarewaju)",
          "local_name": "Obo Essien Uruk Ata Ikot Eboh"
        },
        {
          "name": "Obo Inyang Market Ikot Unnah, Etim Ekpo",
          "slug": "obo-inyang-market-ikot-unnah-etim-ekpo",
          "coordinates": {
            "lat": 4.93389,
            "lng": 7.55387
          },
          "added_by": "GRID3 (racheal.olarewaju)",
          "local_name": "Obo Inyang Ikot Unnah"
        },
        {
          "name": "Obo Market Ikpe Ikot Akwa, Etim Ekpo",
          "slug": "obo-market-ikpe-ikot-akwa-etim-ekpo",
          "coordinates": {
            "lat": 5.00806,
            "lng": 7.65596
          },
          "added_by": "GRID3 (racheal.olarewaju)",
          "local_name": "Obo Ikpe Ikot Akwa"
        },
        {
          "name": "Obo Market Nto Unang, Etim Ekpo",
          "slug": "obo-market-nto-unang-etim-ekpo",
          "coordinates": {
            "lat": 4.96489,
            "lng": 7.59343
          },
          "added_by": "GRID3 (racheal.olarewaju)",
          "local_name": "Obo Nto Unang"
        },
        {
          "name": "Obo Market Ukanafun Ikot Ikan, Etim Ekpo",
          "slug": "obo-market-ukanafun-ikot-ikan-etim-ekpo",
          "coordinates": {
            "lat": 4.95905,
            "lng": 7.65854
          },
          "added_by": "GRID3 (racheal.olarewaju)",
          "local_name": "Obo Ukanafun Ikot Ikan"
        },
        {
          "name": "Obom Market Ikot Ekene, Etim Ekpo",
          "slug": "obom-market-ikot-ekene-etim-ekpo",
          "coordinates": {
            "lat": 4.97517,
            "lng": 7.65253
          },
          "added_by": "GRID3 (racheal.olarewaju)",
          "local_name": "Obom Ikot Ekene"
        },
        {
          "name": "Timber Market Ikot Obio Nta, Etim Ekpo",
          "slug": "timber-market-ikot-obio-nta-etim-ekpo",
          "coordinates": {
            "lat": 5.01842,
            "lng": 7.67225
          },
          "added_by": "GRID3 (racheal.olarewaju)",
          "local_name": "Timber Ikot Obio Nta"
        },
        {
          "name": "Timber Market Nto Unang, Etim Ekpo",
          "slug": "timber-market-nto-unang-etim-ekpo",
          "coordinates": {
            "lat": 4.96138,
            "lng": 7.59877
          },
          "added_by": "GRID3 (racheal.olarewaju)",
          "local_name": "Timber Nto Unang"
        },
        {
          "name": "Udo Okure Market Uruk Ata Ii, Etim Ekpo",
          "slug": "udo-okure-market-uruk-ata-ii-etim-ekpo",
          "coordinates": {
            "lat": 4.89898,
            "lng": 7.50977
          },
          "added_by": "GRID3 (racheal.olarewaju)",
          "local_name": "Udo Okure Uruk Ata Ii"
        },
        {
          "name": "Udofia Udotong Market Utu Nsekeihe, Etim Ekpo",
          "slug": "udofia-udotong-market-utu-nsekeihe-etim-ekpo",
          "coordinates": {
            "lat": 4.95435,
            "lng": 7.68807
          },
          "added_by": "GRID3 (racheal.olarewaju)",
          "local_name": "Udofia Udotong Utu Nsekeihe"
        },
        {
          "name": "Urua Edet Obo Nto Obo Ii, Etim Ekpo",
          "slug": "urua-edet-obo-nto-obo-ii-etim-ekpo",
          "coordinates": {
            "lat": 5.0023,
            "lng": 7.70099
          },
          "added_by": "GRID3 (racheal.olarewaju)",
          "local_name": "Urua Edet Obo Nto Obo Ii"
        },
        {
          "name": "Utit Idim Market Utit Idim Mkprikpo, Etim Ekpo",
          "slug": "utit-idim-market-utit-idim-mkprikpo-etim-ekpo",
          "coordinates": {
            "lat": 4.91221,
            "lng": 7.48592
          },
          "added_by": "GRID3 (racheal.olarewaju)",
          "local_name": "Utit Idim Utit Idim Mkprikpo"
        },
        {
          "name": "Utu Etim Ekpo Market Utu Etim Ekpo",
          "slug": "utu-etim-ekpo-market-utu-etim-ekpo",
          "coordinates": {
            "lat": 5.00674,
            "lng": 7.60679
          },
          "added_by": "GRID3 (racheal.olarewaju)",
          "local_name": "Utu Etim Ekpo Utu Etim Ekpo"
        }
      ]
    },
    {
      "name": "Etinan",
      "slug": "akwa-ibom-etinan",
      "markets": [
        {
          "name": "Afaha Iman Market Afaha Iman, Etinan",
          "slug": "afaha-iman-market-afaha-iman-etinan",
          "coordinates": {
            "lat": 4.87415,
            "lng": 7.8481
          },
          "added_by": "GRID3 (racheal.olarewaju)",
          "local_name": "Afaha Iman Afaha Iman"
        },
        {
          "name": "Akpasaki Market Akpasak Efa, Etinan",
          "slug": "akpasaki-market-akpasak-efa-etinan",
          "coordinates": {
            "lat": 4.74987,
            "lng": 7.81953
          },
          "added_by": "GRID3 (racheal.olarewaju)",
          "local_name": "Akpasaki Akpasak Efa"
        },
        {
          "name": "Edem Ekpat Market Edem Ekpat, Etinan",
          "slug": "edem-ekpat-market-edem-ekpat-etinan",
          "coordinates": {
            "lat": 4.87561,
            "lng": 7.8284
          },
          "added_by": "GRID3 (tosin.williams)",
          "local_name": "Edem Ekpat Edem Ekpat"
        },
        {
          "name": "Edem Ikpe Market Ikot Obong Ikot Inyang, Etinan",
          "slug": "edem-ikpe-market-ikot-obong-ikot-inyang-etinan",
          "coordinates": {
            "lat": 4.78323,
            "lng": 7.81796
          },
          "added_by": "GRID3 (racheal.olarewaju)",
          "local_name": "Edem Ikpe Ikot Obong Ikot Inyang"
        },
        {
          "name": "Ederebo Market Nkana, Etinan",
          "slug": "ederebo-market-nkana-etinan",
          "coordinates": {
            "lat": 4.76793,
            "lng": 7.80597
          },
          "added_by": "GRID3 (racheal.olarewaju)",
          "local_name": "Ederebo Nkana"
        },
        {
          "name": "Efa Timber Market Ikot Akpa Esse, Etinan",
          "slug": "efa-timber-market-ikot-akpa-esse-etinan",
          "coordinates": {
            "lat": 4.74998,
            "lng": 7.83415
          },
          "added_by": "GRID3 (racheal.olarewaju)",
          "local_name": "Efa Timber Ikot Akpa Esse"
        },
        {
          "name": "Efiat Market Efiat Mbioto, Etinan",
          "slug": "efiat-market-efiat-mbioto-etinan",
          "coordinates": {
            "lat": 4.71738,
            "lng": 7.8457
          },
          "added_by": "GRID3 (racheal.olarewaju)",
          "local_name": "Efiat Efiat Mbioto"
        },
        {
          "name": "Esse Market Ikot Esse, Etinan",
          "slug": "esse-market-ikot-esse-etinan",
          "coordinates": {
            "lat": 4.74854,
            "lng": 7.83576
          },
          "added_by": "GRID3 (racheal.olarewaju)",
          "local_name": "Esse Ikot Esse"
        },
        {
          "name": "Etinan Urban Market Etinan",
          "slug": "etinan-urban-market-etinan",
          "coordinates": {
            "lat": 4.835,
            "lng": 7.85134
          },
          "added_by": "GRID3 (racheal.olarewaju)",
          "local_name": "Etinan Urban Etinan"
        },
        {
          "name": "Ikot Abasi Market Ikot Abasi I, Etinan",
          "slug": "ikot-abasi-market-ikot-abasi-i-etinan",
          "coordinates": {
            "lat": 4.85928,
            "lng": 7.84979
          },
          "added_by": "GRID3 (tosin.williams)",
          "local_name": "Ikot Abasi Ikot Abasi 1"
        },
        {
          "name": "Ikot Akpan Market Ikot Akpan Obio Ekot, Etinan",
          "slug": "ikot-akpan-market-ikot-akpan-obio-ekot-etinan",
          "coordinates": {
            "lat": 4.79443,
            "lng": 7.80363
          },
          "added_by": "GRID3 (racheal.olarewaju)",
          "local_name": "Ikot Akpan Ikot Akpan Obio Ekot"
        },
        {
          "name": "Ikot Akpana Market Ikot Akpanya, Etinan",
          "slug": "ikot-akpana-market-ikot-akpanya-etinan",
          "coordinates": {
            "lat": 4.91144,
            "lng": 7.82763
          },
          "added_by": "GRID3 (racheal.olarewaju)",
          "local_name": "Ikot Akpana Ikot Akpanya"
        },
        {
          "name": "Ikot Ekan Market Ikot Ekan, Etinan",
          "slug": "ikot-ekan-market-ikot-ekan-etinan",
          "coordinates": {
            "lat": 4.92112,
            "lng": 7.84059
          },
          "added_by": "GRID3 (racheal.olarewaju)",
          "local_name": "Ikot Ekan Ikot Ekan"
        },
        {
          "name": "Ikot Esen Market Ikot Esen Oku, Etinan",
          "slug": "ikot-esen-market-ikot-esen-oku-etinan",
          "coordinates": {
            "lat": 4.79461,
            "lng": 7.85608
          },
          "added_by": "GRID3 (racheal.olarewaju)",
          "local_name": "Ikot Esen Ikot Esen Oku"
        },
        {
          "name": "Ikot Mfon Market Ikot Mfon, Etinan",
          "slug": "ikot-mfon-market-ikot-mfon-etinan",
          "coordinates": {
            "lat": 4.77641,
            "lng": 7.86894
          },
          "added_by": "GRID3 (racheal.olarewaju)",
          "local_name": "Ikot Mfon Ikot Mfon"
        },
        {
          "name": "Ikot Nsung Market Ikot Nsung, Etinan",
          "slug": "ikot-nsung-market-ikot-nsung-etinan",
          "coordinates": {
            "lat": 4.75377,
            "lng": 7.80908
          },
          "added_by": "GRID3 (racheal.olarewaju)",
          "local_name": "Ikot Nsung Ikot Nsung"
        },
        {
          "name": "Ikot Nte Market Ikot Nte, Etinan",
          "slug": "ikot-nte-market-ikot-nte-etinan",
          "coordinates": {
            "lat": 4.75391,
            "lng": 7.85315
          },
          "added_by": "GRID3 (racheal.olarewaju)",
          "local_name": "Ikot Nte Ikot Nte"
        },
        {
          "name": "Ikot Obio Inyang Market Ikot Obio Inyang, Etinan",
          "slug": "ikot-obio-inyang-market-ikot-obio-inyang-etinan",
          "coordinates": {
            "lat": 4.96687,
            "lng": 7.84041
          },
          "added_by": "GRID3 (racheal.olarewaju)",
          "local_name": "Ikot Obio Inyang Ikot Obio Inyang"
        },
        {
          "name": "Ikot Udo Otto Market Ikot Udo Otto, Etinan",
          "slug": "ikot-udo-otto-market-ikot-udo-otto-etinan",
          "coordinates": {
            "lat": 4.87042,
            "lng": 7.85189
          },
          "added_by": "GRID3 (racheal.olarewaju)",
          "local_name": "Ikot Udo Otto Ikot Udo Otto"
        },
        {
          "name": "Ikot Udoabia Market Ikot Udoabia, Etinan",
          "slug": "ikot-udoabia-market-ikot-udoabia-etinan",
          "coordinates": {
            "lat": 4.88702,
            "lng": 7.83241
          },
          "added_by": "GRID3 (racheal.olarewaju)",
          "local_name": "Ikot Udoabia Ikot Udoabia"
        },
        {
          "name": "Ikot Umiang Ikot Umiang Ede, Etinan",
          "slug": "ikot-umiang-ikot-umiang-ede-etinan",
          "coordinates": {
            "lat": 4.75337,
            "lng": 7.87193
          },
          "added_by": "GRID3 (racheal.olarewaju)",
          "local_name": "Ikot Umiang Ikot Umiang Ede"
        },
        {
          "name": "Iwo Etor Market Iwo Etor, Etinan",
          "slug": "iwo-etor-market-iwo-etor-etinan",
          "coordinates": {
            "lat": 4.72967,
            "lng": 7.83724
          },
          "added_by": "GRID3 (racheal.olarewaju)",
          "local_name": "Iwo Etor Iwo Etor"
        },
        {
          "name": "Mbioto Market Mbioto Ekpene Ituen, Etinan",
          "slug": "mbioto-market-mbioto-ekpene-ituen-etinan",
          "coordinates": {
            "lat": 4.72249,
            "lng": 7.84868
          },
          "added_by": "GRID3 (racheal.olarewaju)",
          "local_name": "Mbioto Mbioto Ekpene Ituen"
        },
        {
          "name": "Mbioto Market Mbioto Obio, Etinan",
          "slug": "mbioto-market-mbioto-obio-etinan",
          "coordinates": {
            "lat": 4.93305,
            "lng": 7.8399
          },
          "added_by": "GRID3 (racheal.olarewaju)",
          "local_name": "Mbioto Mbioto Obio"
        },
        {
          "name": "Mkpafi Market Ikot Isong, Etinan",
          "slug": "mkpafi-market-ikot-isong-etinan",
          "coordinates": {
            "lat": 4.90071,
            "lng": 7.83716
          },
          "added_by": "GRID3 (racheal.olarewaju)",
          "local_name": "Mkpafi Ikot Isong"
        },
        {
          "name": "Ndon Eyo Market Ndon Eyo 1, Etinan",
          "slug": "ndon-eyo-market-ndon-eyo-1-etinan",
          "coordinates": {
            "lat": 4.86653,
            "lng": 7.81948
          },
          "added_by": "GRID3 (tosin.williams)",
          "local_name": "Ndon Eyo Ndon Eyo 1"
        },
        {
          "name": "Uruaobom Market Ikot Esua, Etinan",
          "slug": "uruaobom-market-ikot-esua-etinan",
          "coordinates": {
            "lat": 4.89645,
            "lng": 7.85357
          },
          "added_by": "GRID3 (racheal.olarewaju)",
          "local_name": "Uruaobom Ikot Esua"
        }
      ]
    },
    {
      "name": "Ibeno",
      "slug": "akwa-ibom-ibeno",
      "markets": [
        {
          "name": "Adaha Okpo Market, Ibeno",
          "slug": "adaha-okpo-market-ibeno",
          "coordinates": {
            "lat": 4.57148,
            "lng": 7.96886
          },
          "added_by": "GRID3 (racheal.olarewaju)",
          "local_name": "Adaha Okpo"
        },
        {
          "name": "Fresh Fish Market Adaha Esuk, Ibeno",
          "slug": "fresh-fish-market-adaha-esuk-ibeno",
          "coordinates": {
            "lat": 4.56731,
            "lng": 7.97283
          },
          "added_by": "GRID3 (racheal.olarewaju)",
          "local_name": "Fresh Fish Adaha Esuk"
        },
        {
          "name": "Iwuo Achang Market, Ibeno",
          "slug": "iwuo-achang-market-ibeno",
          "coordinates": {
            "lat": 4.56705,
            "lng": 7.96973
          },
          "added_by": "GRID3 (racheal.olarewaju)",
          "local_name": "Iwuo Achang"
        },
        {
          "name": "Iwuo Okpom Market, Ibeno",
          "slug": "iwuo-okpom-market-ibeno",
          "coordinates": {
            "lat": 4.54478,
            "lng": 7.99077
          },
          "added_by": "GRID3 (racheal.olarewaju)",
          "local_name": "Iwuo Okpom"
        }
      ]
    },
    {
      "name": "Ibesikpo Asutan",
      "slug": "akwa-ibom-ibesikpo-asutan",
      "markets": [
        {
          "name": "Akpa Edung Market Ikot Akpabin, Ibesikpo Asutan",
          "slug": "akpa-edung-market-ikot-akpabin-ibesikpo-asutan",
          "coordinates": {
            "lat": 4.89148,
            "lng": 7.99462
          },
          "added_by": "GRID3 (racheal.olarewaju)",
          "local_name": "Akpa Edung Ikot Akpabin"
        },
        {
          "name": "Akpasia Market Ikot Enua, Ibesikpo Asutan",
          "slug": "akpasia-market-ikot-enua-ibesikpo-asutan",
          "coordinates": {
            "lat": 4.85674,
            "lng": 8.0201
          },
          "added_by": "GRID3 (racheal.olarewaju)",
          "local_name": "Akpasia Ikot Enua"
        },
        {
          "name": "Apaha Market Afaha Ikot Owop, Ibesikpo Asutan",
          "slug": "apaha-market-afaha-ikot-owop-ibesikpo-asutan",
          "coordinates": {
            "lat": 4.92066,
            "lng": 7.92439
          },
          "added_by": "GRID3 (racheal.olarewaju)",
          "local_name": "Apaha Afaha Ikot Owop"
        },
        {
          "name": "Edem Ibiok Market Ikot Akpa Edung, Ibesikpo Asutan",
          "slug": "edem-ibiok-market-ikot-akpa-edung-ibesikpo-asutan",
          "coordinates": {
            "lat": 4.89588,
            "lng": 8.01198
          },
          "added_by": "GRID3 (racheal.olarewaju)",
          "local_name": "Edem Ibiok Ikot Akpa Edung"
        },
        {
          "name": "Engineers Market Afaha Abasi Essien, Ibesikpo Asutan",
          "slug": "engineers-market-afaha-abasi-essien-ibesikpo-asutan",
          "coordinates": {
            "lat": 4.88821,
            "lng": 7.9271
          },
          "added_by": "GRID3 (racheal.olarewaju)",
          "local_name": "Engineer'S Afaha Abasi Essien"
        },
        {
          "name": "Fionaran Market Nung Udoe, Ibesikpo Asutan",
          "slug": "fionaran-market-nung-udoe-ibesikpo-asutan",
          "coordinates": {
            "lat": 4.9185,
            "lng": 7.96472
          },
          "added_by": "GRID3 (racheal.olarewaju)",
          "local_name": "Fionaran Nung Udoe"
        },
        {
          "name": "Fionetok Market Ikot Ambon, Ibesikpo Asutan",
          "slug": "fionetok-market-ikot-ambon-ibesikpo-asutan",
          "coordinates": {
            "lat": 4.96487,
            "lng": 7.9344
          },
          "added_by": "GRID3 (racheal.olarewaju)",
          "local_name": "Fionetok Ikot Ambon"
        },
        {
          "name": "Fionetok Market Ikot Udo Eyoho, Ibesikpo Asutan",
          "slug": "fionetok-market-ikot-udo-eyoho-ibesikpo-asutan",
          "coordinates": {
            "lat": 4.89665,
            "lng": 7.9894
          },
          "added_by": "GRID3 (racheal.olarewaju)",
          "local_name": "Fionetok Ikot Udo Eyoho"
        },
        {
          "name": "Ikot Abasi Market Ntuk Otong, Ibesikpo Asutan",
          "slug": "ikot-abasi-market-ntuk-otong-ibesikpo-asutan",
          "coordinates": {
            "lat": 4.85031,
            "lng": 7.98939
          },
          "added_by": "GRID3 (racheal.olarewaju)",
          "local_name": "Ikot Abasi Ntuk Otong"
        },
        {
          "name": "Ikot Akpa Etok Market Ikot Ide Akpakpan, Ibesikpo Asutan",
          "slug": "ikot-akpa-etok-market-ikot-ide-akpakpan-ibesikpo-asutan",
          "coordinates": {
            "lat": 4.92216,
            "lng": 7.97844
          },
          "added_by": "GRID3 (racheal.olarewaju)",
          "local_name": "Ikot Akpa Etok Ikot Ide Akpakpan"
        },
        {
          "name": "Ikot Akpa Etok Market Ikot Udo Nkan, Ibesikpo Asutan",
          "slug": "ikot-akpa-etok-market-ikot-udo-nkan-ibesikpo-asutan",
          "coordinates": {
            "lat": 4.88349,
            "lng": 7.94949
          },
          "added_by": "GRID3 (racheal.olarewaju)",
          "local_name": "Ikot Akpa Etok Ikot Udo Nkan"
        },
        {
          "name": "Ikot Akpan Abia Market Ikot Akpan Abia, Ibesikpo Asutan",
          "slug": "ikot-akpan-abia-market-ikot-akpan-abia-ibesikpo-asutan",
          "coordinates": {
            "lat": 4.99447,
            "lng": 7.90525
          },
          "added_by": "GRID3 (racheal.olarewaju)",
          "local_name": "Ikot Akpan Abia Ikot Akpan Abia"
        },
        {
          "name": "Ikot Akpan Ndua Market, Ibesikpo Asutan",
          "slug": "ikot-akpan-ndua-market-ibesikpo-asutan",
          "coordinates": {
            "lat": 4.888278966,
            "lng": 7.926815904
          },
          "added_by": "GRID3 (adanna.alex)",
          "type": "Food Stuff",
          "local_name": "Ikot Akpan Ndua"
        },
        {
          "name": "Ikot Akpaoso Market Ikot Ukop, Ibesikpo Asutan",
          "slug": "ikot-akpaoso-market-ikot-ukop-ibesikpo-asutan",
          "coordinates": {
            "lat": 4.88988,
            "lng": 7.97314
          },
          "added_by": "GRID3 (racheal.olarewaju)",
          "local_name": "Ikot Akpaoso Ikot Ukop"
        },
        {
          "name": "Ikot Atang Market Mbikpong Ikot Edim, Ibesikpo Asutan",
          "slug": "ikot-atang-market-mbikpong-ikot-edim-ibesikpo-asutan",
          "coordinates": {
            "lat": 4.98323,
            "lng": 7.91732
          },
          "added_by": "GRID3 (racheal.olarewaju)",
          "local_name": "Ikot Atang Mbikpong Ikot Edim"
        },
        {
          "name": "Ikot Atany Essien Market Obio Aduang, Ibesikpo Asutan",
          "slug": "ikot-atany-essien-market-obio-aduang-ibesikpo-asutan",
          "coordinates": {
            "lat": 4.83474,
            "lng": 7.93607
          },
          "added_by": "GRID3 (racheal.olarewaju)",
          "local_name": "Ikot Atany Essien Obio Aduang"
        },
        {
          "name": "Ikot Atany Uma Market Ikot Akpaoso, Ibesikpo Asutan",
          "slug": "ikot-atany-uma-market-ikot-akpaoso-ibesikpo-asutan",
          "coordinates": {
            "lat": 4.84472,
            "lng": 7.96646
          },
          "added_by": "GRID3 (racheal.olarewaju)",
          "local_name": "Ikot Atany Uma Ikot Akpaoso"
        },
        {
          "name": "Ikot Ebre Market Ikot Emekan, Ibesikpo Asutan",
          "slug": "ikot-ebre-market-ikot-emekan-ibesikpo-asutan",
          "coordinates": {
            "lat": 4.87692,
            "lng": 8.00193
          },
          "added_by": "GRID3 (racheal.olarewaju)",
          "local_name": "Ikot Ebre Ikot Emekan"
        },
        {
          "name": "Ikot Essien Market Oku Ikot Edaha, Ibesikpo Asutan",
          "slug": "ikot-essien-market-oku-ikot-edaha-ibesikpo-asutan",
          "coordinates": {
            "lat": 4.92068,
            "lng": 7.98752
          },
          "added_by": "GRID3 (racheal.olarewaju)",
          "local_name": "Ikot Essien Oku Ikot Edaha"
        },
        {
          "name": "Ikot Ide Akpakma Market Nung Udoe, Ibesikpo Asutan",
          "slug": "ikot-ide-akpakma-market-nung-udoe-ibesikpo-asutan",
          "coordinates": {
            "lat": 4.92609,
            "lng": 7.97112
          },
          "added_by": "GRID3 (racheal.olarewaju)",
          "local_name": "Ikot Ide Akpakma Nung Udoe"
        },
        {
          "name": "Ikot Iyan Market Ikot Nko, Ibesikpo Asutan",
          "slug": "ikot-iyan-market-ikot-nko-ibesikpo-asutan",
          "coordinates": {
            "lat": 4.87073,
            "lng": 7.96495
          },
          "added_by": "GRID3 (racheal.olarewaju)",
          "local_name": "Ikot Iyan Ikot Nko"
        },
        {
          "name": "Ikot Mbang Market Ikot Atang Esen, Ibesikpo Asutan",
          "slug": "ikot-mbang-market-ikot-atang-esen-ibesikpo-asutan",
          "coordinates": {
            "lat": 4.82084,
            "lng": 7.94035
          },
          "added_by": "GRID3 (racheal.olarewaju)",
          "local_name": "Ikot Mbang Ikot Atang Esen"
        },
        {
          "name": "Ikot Mbride Market Ntuk Otong, Ibesikpo Asutan",
          "slug": "ikot-mbride-market-ntuk-otong-ibesikpo-asutan",
          "coordinates": {
            "lat": 4.85522,
            "lng": 7.99385
          },
          "added_by": "GRID3 (racheal.olarewaju)",
          "local_name": "Ikot Mbride Ntuk Otong"
        },
        {
          "name": "Ikot Nkim Market Edem Ibiok, Ibesikpo Asutan",
          "slug": "ikot-nkim-market-edem-ibiok-ibesikpo-asutan",
          "coordinates": {
            "lat": 4.90217,
            "lng": 7.99142
          },
          "added_by": "GRID3 (racheal.olarewaju)",
          "local_name": "Ikot Nkim Edem Ibiok"
        },
        {
          "name": "Ikot Nkwo Market Ikot Ukop, Ibesikpo Asutan",
          "slug": "ikot-nkwo-market-ikot-ukop-ibesikpo-asutan",
          "coordinates": {
            "lat": 4.84752,
            "lng": 7.97007
          },
          "added_by": "GRID3 (racheal.olarewaju)",
          "local_name": "Ikot Nkwo Ikot Ukop"
        },
        {
          "name": "Ikot Obio Ata Market Ikot Akpa Asutan, Ibesikpo Asutan",
          "slug": "ikot-obio-ata-market-ikot-akpa-asutan-ibesikpo-asutan",
          "coordinates": {
            "lat": 4.90986,
            "lng": 7.99443
          },
          "added_by": "GRID3 (racheal.olarewaju)",
          "local_name": "Ikot Obio Ata Ikot Akpa Asutan"
        },
        {
          "name": "Ikot Obio Ata Market Ikot Obio Edim, Ibesikpo Asutan",
          "slug": "ikot-obio-ata-market-ikot-obio-edim-ibesikpo-asutan",
          "coordinates": {
            "lat": 4.88704,
            "lng": 8.00241
          },
          "added_by": "GRID3 (racheal.olarewaju)",
          "local_name": "Ikot Obio Ata Ikot Obio Edim"
        },
        {
          "name": "Ikot Oku Akpan Market Ikot Iyan, Ibesikpo Asutan",
          "slug": "ikot-oku-akpan-market-ikot-iyan-ibesikpo-asutan",
          "coordinates": {
            "lat": 4.87007,
            "lng": 7.9585
          },
          "added_by": "GRID3 (racheal.olarewaju)",
          "local_name": "Ikot Oku Akpan Ikot Iyan"
        },
        {
          "name": "Ikot Udo Eyoho Market Ikot Akpa Edung, Ibesikpo Asutan",
          "slug": "ikot-udo-eyoho-market-ikot-akpa-edung-ibesikpo-asutan",
          "coordinates": {
            "lat": 4.87946,
            "lng": 7.99287
          },
          "added_by": "GRID3 (racheal.olarewaju)",
          "local_name": "Ikot Udo Eyoho Ikot Akpa Edung"
        },
        {
          "name": "Ikot Ukop Market Ikot Akpandua, Ibesikpo Asutan",
          "slug": "ikot-ukop-market-ikot-akpandua-ibesikpo-asutan",
          "coordinates": {
            "lat": 4.88302,
            "lng": 7.95623
          },
          "added_by": "GRID3 (racheal.olarewaju)",
          "local_name": "Ikot Ukop Ikot Akpandua"
        },
        {
          "name": "Ilot Ediom Market Ikot Annung, Ibesikpo Asutan",
          "slug": "ilot-ediom-market-ikot-annung-ibesikpo-asutan",
          "coordinates": {
            "lat": 4.89544,
            "lng": 7.93687
          },
          "added_by": "GRID3 (racheal.olarewaju)",
          "local_name": "Ilot Ediom Ikot Annung"
        },
        {
          "name": "Mbak Ekpe Market Ikot Obio Edim, Ibesikpo Asutan",
          "slug": "mbak-ekpe-market-ikot-obio-edim-ibesikpo-asutan",
          "coordinates": {
            "lat": 4.90376,
            "lng": 7.95093
          },
          "added_by": "GRID3 (racheal.olarewaju)",
          "local_name": "Mbak Ekpe Ikot Obio Edim"
        },
        {
          "name": "Mbierebe Market Mbierebe Obio, Ibesikpo Asutan",
          "slug": "mbierebe-market-mbierebe-obio-ibesikpo-asutan",
          "coordinates": {
            "lat": 4.99822,
            "lng": 7.89543
          },
          "added_by": "GRID3 (racheal.olarewaju)",
          "local_name": "Mbierebe Mbierebe Obio"
        },
        {
          "name": "Nyuk Otong Market Ikot Obio Nko, Ibesikpo Asutan",
          "slug": "nyuk-otong-market-ikot-obio-nko-ibesikpo-asutan",
          "coordinates": {
            "lat": 4.86149,
            "lng": 7.98978
          },
          "added_by": "GRID3 (racheal.olarewaju)",
          "local_name": "Nyuk Otong Ikot Obio Nko"
        },
        {
          "name": "Obio Nko Market Ikot Ossom, Ibesikpo Asutan",
          "slug": "obio-nko-market-ikot-ossom-ibesikpo-asutan",
          "coordinates": {
            "lat": 4.85743,
            "lng": 7.98444
          },
          "added_by": "GRID3 (racheal.olarewaju)",
          "local_name": "Obio Nko Ikot Ossom"
        },
        {
          "name": "Obioaduany Market Ikot Nkwo, Ibesikpo Asutan",
          "slug": "obioaduany-market-ikot-nkwo-ibesikpo-asutan",
          "coordinates": {
            "lat": 4.83998,
            "lng": 7.94532
          },
          "added_by": "GRID3 (racheal.olarewaju)",
          "local_name": "Obioaduany Ikot Nkwo"
        },
        {
          "name": "Oku Market Ikot Ediom, Ibesikpo Asutan",
          "slug": "oku-market-ikot-ediom-ibesikpo-asutan",
          "coordinates": {
            "lat": 4.91179,
            "lng": 7.98677
          },
          "added_by": "GRID3 (racheal.olarewaju)",
          "local_name": "Oku Ikot Ediom"
        },
        {
          "name": "Unua Ukana Market Nung Ukana Ikot Obio Akpan, Ibesikpo Asutan",
          "slug": "unua-ukana-market-nung-ukana-ikot-obio-akpan-ibesikpo-asutan",
          "coordinates": {
            "lat": 4.92755,
            "lng": 7.93874
          },
          "added_by": "GRID3 (racheal.olarewaju)",
          "local_name": "Unua Ukana Nung Ukana Ikot Obio Akpan"
        },
        {
          "name": "Urua Afaha Market Afaha Ikot Obio Nkan, Ibesikpo Asutan",
          "slug": "urua-afaha-market-afaha-ikot-obio-nkan-ibesikpo-asutan",
          "coordinates": {
            "lat": 4.9894,
            "lng": 7.93366
          },
          "added_by": "GRID3 (racheal.olarewaju)",
          "local_name": "Urua Afaha Afaha Ikot Obio Nkan"
        },
        {
          "name": "Urua Ataetaha Market Ikot Abasi, Ibesikpo Asutan",
          "slug": "urua-ataetaha-market-ikot-abasi-ibesikpo-asutan",
          "coordinates": {
            "lat": 4.85877,
            "lng": 8.0141
          },
          "added_by": "GRID3 (racheal.olarewaju)",
          "local_name": "Urua Ataetaha Ikot Abasi"
        },
        {
          "name": "Urua Edemetaha Market Ikot Ide Etukudo, Ibesikpo Asutan",
          "slug": "urua-edemetaha-market-ikot-ide-etukudo-ibesikpo-asutan",
          "coordinates": {
            "lat": 4.93946,
            "lng": 7.95817
          },
          "added_by": "GRID3 (racheal.olarewaju)",
          "local_name": "Urua Edemetaha Ikot Ide Etukudo"
        },
        {
          "name": "Urua Ederebo Market Ikot Atang Esen, Ibesikpo Asutan",
          "slug": "urua-ederebo-market-ikot-atang-esen-ibesikpo-asutan",
          "coordinates": {
            "lat": 4.82753,
            "lng": 7.93876
          },
          "added_by": "GRID3 (racheal.olarewaju)",
          "local_name": "Urua Ederebo Ikot Atang Esen"
        },
        {
          "name": "Urua Enang Market Ebere Otu, Ibesikpo Asutan",
          "slug": "urua-enang-market-ebere-otu-ibesikpo-asutan",
          "coordinates": {
            "lat": 4.95366,
            "lng": 7.92158
          },
          "added_by": "GRID3 (racheal.olarewaju)",
          "local_name": "Urua Enang Ebere Otu"
        },
        {
          "name": "Urua Essien Market Nung Ette, Ibesikpo Asutan",
          "slug": "urua-essien-market-nung-ette-ibesikpo-asutan",
          "coordinates": {
            "lat": 4.96877,
            "lng": 7.94614
          },
          "added_by": "GRID3 (racheal.olarewaju)",
          "local_name": "Urua Essien Nung Ette"
        },
        {
          "name": "Urua Etaha Market Afaha Atai, Ibesikpo Asutan",
          "slug": "urua-etaha-market-afaha-atai-ibesikpo-asutan",
          "coordinates": {
            "lat": 4.97811,
            "lng": 7.93493
          },
          "added_by": "GRID3 (racheal.olarewaju)",
          "local_name": "Urua Etaha Afaha Atai"
        },
        {
          "name": "Urua Fionaran Market Itoko, Ibesikpo Asutan",
          "slug": "urua-fionaran-market-itoko-ibesikpo-asutan",
          "coordinates": {
            "lat": 4.92788,
            "lng": 7.92104
          },
          "added_by": "GRID3 (racheal.olarewaju)",
          "local_name": "Urua Fionaran Itoko"
        },
        {
          "name": "Urua Ikot Akpabinmarket Ikot Akpasia, Ibesikpo Asutan",
          "slug": "urua-ikot-akpabinmarket-ikot-akpasia-ibesikpo-asutan",
          "coordinates": {
            "lat": 4.86543,
            "lng": 7.99329
          },
          "added_by": "GRID3 (racheal.olarewaju)",
          "local_name": "Urua Ikot Akpabinmarket Ikot Akpasia"
        },
        {
          "name": "Urua Ikot Ikan Market Ikot Akpasia, Ibesikpo Asutan",
          "slug": "urua-ikot-ikan-market-ikot-akpasia-ibesikpo-asutan",
          "coordinates": {
            "lat": 4.85632,
            "lng": 8.00893
          },
          "added_by": "GRID3 (racheal.olarewaju)",
          "local_name": "Urua Ikot Ikan Ikot Akpasia"
        },
        {
          "name": "Urua Ikot Ossom Market Ndikpo Atang, Ibesikpo Asutan",
          "slug": "urua-ikot-ossom-market-ndikpo-atang-ibesikpo-asutan",
          "coordinates": {
            "lat": 4.85296,
            "lng": 7.97802
          },
          "added_by": "GRID3 (racheal.olarewaju)",
          "local_name": "Urua Ikot Ossom Ndikpo Atang"
        },
        {
          "name": "Urua Nto Market Ikot Okubo, Ibesikpo Asutan",
          "slug": "urua-nto-market-ikot-okubo-ibesikpo-asutan",
          "coordinates": {
            "lat": 4.94614,
            "lng": 7.92702
          },
          "added_by": "GRID3 (racheal.olarewaju)",
          "local_name": "Urua Nto Ikot Okubo"
        },
        {
          "name": "Urua Nyieiso Market Ikot Itok, Ibesikpo Asutan",
          "slug": "urua-nyieiso-market-ikot-itok-ibesikpo-asutan",
          "coordinates": {
            "lat": 4.80198,
            "lng": 7.95105
          },
          "added_by": "GRID3 (racheal.olarewaju)",
          "local_name": "Urua Nyieiso Ikot Itok"
        },
        {
          "name": "Urua Obo Market Ikot Obio Offong, Ibesikpo Asutan",
          "slug": "urua-obo-market-ikot-obio-offong-ibesikpo-asutan",
          "coordinates": {
            "lat": 4.93643,
            "lng": 7.95294
          },
          "added_by": "GRID3 (racheal.olarewaju)",
          "local_name": "Urua Obo Ikot Obio Offong"
        }
      ]
    },
    {
      "name": "Ibiono Ibom",
      "slug": "akwa-ibom-ibiono-ibom",
      "markets": [
        {
          "name": "Aka Market Ikot Abia Aka, Ibiono Ibom",
          "slug": "aka-market-ikot-abia-aka-ibiono-ibom",
          "coordinates": {
            "lat": 5.28182,
            "lng": 7.83514
          },
          "added_by": "GRID3 (tosin.williams)",
          "local_name": "Aka Ikot Abia Aka"
        },
        {
          "name": "Aka Market Odoro Aka, Ibiono Ibom",
          "slug": "aka-market-odoro-aka-ibiono-ibom",
          "coordinates": {
            "lat": 5.12322,
            "lng": 7.91905
          },
          "added_by": "GRID3 (racheal.olarewaju)",
          "local_name": "Aka Odoro Aka"
        },
        {
          "name": "Ekimbok Market Ekimbuk, Ibiono Ibom",
          "slug": "ekimbok-market-ekimbuk-ibiono-ibom",
          "coordinates": {
            "lat": 5.22854,
            "lng": 7.90021
          },
          "added_by": "GRID3 (racheal.olarewaju)",
          "local_name": "Ekimbok Ekimbuk"
        },
        {
          "name": "Ididep Market Ikot Udo Obuk, Ibiono Ibom",
          "slug": "ididep-market-ikot-udo-obuk-ibiono-ibom",
          "coordinates": {
            "lat": 5.17228,
            "lng": 7.93516
          },
          "added_by": "GRID3 (racheal.olarewaju)",
          "local_name": "Ididep Ikot Udo Obuk"
        },
        {
          "name": "Ikot Akpabio Market Ikot Akpabio, Ibiono Ibom",
          "slug": "ikot-akpabio-market-ikot-akpabio-ibiono-ibom",
          "coordinates": {
            "lat": 5.07212,
            "lng": 7.84349
          },
          "added_by": "GRID3 (racheal.olarewaju)",
          "local_name": "Ikot Akpabio Ikot Akpabio"
        },
        {
          "name": "Ikot Ambang Market Ikot Ambang, Ibiono Ibom",
          "slug": "ikot-ambang-market-ikot-ambang-ibiono-ibom",
          "coordinates": {
            "lat": 5.06011,
            "lng": 7.87395
          },
          "added_by": "GRID3 (racheal.olarewaju)",
          "local_name": "Ikot Ambang Ikot Ambang"
        },
        {
          "name": "Ikot Antia Market Ikot Antia, Ibiono Ibom",
          "slug": "ikot-antia-market-ikot-antia-ibiono-ibom",
          "coordinates": {
            "lat": 5.16467,
            "lng": 7.91398
          },
          "added_by": "GRID3 (racheal.olarewaju)",
          "local_name": "Ikot Antia Ikot Antia"
        },
        {
          "name": "Ikot Nkpo Mart Ikot Mkpo, Ibiono Ibom",
          "slug": "ikot-nkpo-mart-ikot-mkpo-ibiono-ibom",
          "coordinates": {
            "lat": 5.15968,
            "lng": 7.8664
          },
          "added_by": "GRID3 (racheal.olarewaju)",
          "local_name": "Ikot Nkpo Mart Ikot Mkpo"
        },
        {
          "name": "Ikot Odiong Market Ibiono Ibom",
          "slug": "ikot-odiong-market-ibiono-ibom",
          "coordinates": {
            "lat": 5.15832,
            "lng": 7.92348
          },
          "added_by": "GRID3 (racheal.olarewaju)",
          "local_name": "Ikot Odiong Ibiono Ibom"
        },
        {
          "name": "Ikpedip Market Ikpedip, Ibiono Ibom",
          "slug": "ikpedip-market-ikpedip-ibiono-ibom",
          "coordinates": {
            "lat": 5.06342,
            "lng": 7.85554
          },
          "added_by": "GRID3 (racheal.olarewaju)",
          "local_name": "Ikpedip Ikpedip"
        },
        {
          "name": "Itu Market Odoro Ukim Mbiam, Ibiono Ibom",
          "slug": "itu-market-odoro-ukim-mbiam-ibiono-ibom",
          "coordinates": {
            "lat": 5.20406,
            "lng": 7.9721
          },
          "added_by": "GRID3 (racheal.olarewaju)",
          "local_name": "Itu Odoro Ukim Mbiam"
        },
        {
          "name": "Itu Udo Market Itu Udo, Ibiono Ibom",
          "slug": "itu-udo-market-itu-udo-ibiono-ibom",
          "coordinates": {
            "lat": 5.18639,
            "lng": 7.85392
          },
          "added_by": "GRID3 (racheal.olarewaju)",
          "local_name": "Itu Udo Itu Udo"
        },
        {
          "name": "Mbiakpan Market Mbiakpan Ididep, Ibiono Ibom",
          "slug": "mbiakpan-market-mbiakpan-ididep-ibiono-ibom",
          "coordinates": {
            "lat": 5.13777,
            "lng": 7.91735
          },
          "added_by": "GRID3 (racheal.olarewaju)",
          "local_name": "Mbiakpan Mbiakpan Ididep"
        },
        {
          "name": "Urua Afua Afua, Ibiono Ibom",
          "slug": "urua-afua-afua-ibiono-ibom",
          "coordinates": {
            "lat": 5.26746,
            "lng": 7.88383
          },
          "added_by": "GRID3 (tosin.williams)",
          "local_name": "Urua Afua Afua"
        },
        {
          "name": "Urua Edet Nung Udoe Itak, Ibiono Ibom",
          "slug": "urua-edet-nung-udoe-itak-ibiono-ibom",
          "coordinates": {
            "lat": 5.10085,
            "lng": 7.84141
          },
          "added_by": "GRID3 (racheal.olarewaju)",
          "local_name": "Urua Edet Nung Udoe Itak"
        },
        {
          "name": "Urua Essein Ididep Usuk, Ibiono Ibom",
          "slug": "urua-essein-ididep-usuk-ibiono-ibom",
          "coordinates": {
            "lat": 5.21486,
            "lng": 7.93744
          },
          "added_by": "GRID3 (racheal.olarewaju)",
          "local_name": "Urua Essein Ididep Usuk"
        },
        {
          "name": "Urua Essien Ikot Essiet, Ibiono Ibom",
          "slug": "urua-essien-ikot-essiet-ibiono-ibom",
          "coordinates": {
            "lat": 5.21927,
            "lng": 7.86501
          },
          "added_by": "GRID3 (racheal.olarewaju)",
          "local_name": "Urua Essien Ikot Essiet"
        },
        {
          "name": "Urua Etaha Ikot Efre, Ibiono Ibom",
          "slug": "urua-etaha-ikot-efre-ibiono-ibom",
          "coordinates": {
            "lat": 5.03633,
            "lng": 7.84433
          },
          "added_by": "GRID3 (racheal.olarewaju)",
          "local_name": "Urua Etaha Ikot Efre"
        },
        {
          "name": "Urua I Ikot Akpan Obong, Ibiono Ibom",
          "slug": "urua-i-ikot-akpan-obong-ibiono-ibom",
          "coordinates": {
            "lat": 5.19196,
            "lng": 7.89721
          },
          "added_by": "GRID3 (racheal.olarewaju)",
          "local_name": "Urua I Ikot Akpan Obong"
        },
        {
          "name": "Urua Idoro Ikot Obio Afaha, Ibiono Ibom",
          "slug": "urua-idoro-ikot-obio-afaha-ibiono-ibom",
          "coordinates": {
            "lat": 5.24947,
            "lng": 7.90694
          },
          "added_by": "GRID3 (racheal.olarewaju)",
          "local_name": "Urua Idoro Ikot Obio Afaha"
        },
        {
          "name": "Urua Obot Idim Ukpap Idiang, Ibiono Ibom",
          "slug": "urua-obot-idim-ukpap-idiang-ibiono-ibom",
          "coordinates": {
            "lat": 5.07301,
            "lng": 7.83593
          },
          "added_by": "GRID3 (racheal.olarewaju)",
          "local_name": "Urua Obot Idim Ukpap Idiang"
        },
        {
          "name": "Urua Ono Ikot Akpan Uso, Ibiono Ibom",
          "slug": "urua-ono-ikot-akpan-uso-ibiono-ibom",
          "coordinates": {
            "lat": 5.24476,
            "lng": 7.87145
          },
          "added_by": "GRID3 (racheal.olarewaju)",
          "local_name": "Urua Ono Ikot Akpan Uso"
        },
        {
          "name": "Urua Usung Obot Enang, Ibiono Ibom",
          "slug": "urua-usung-obot-enang-ibiono-ibom",
          "coordinates": {
            "lat": 5.22908,
            "lng": 7.93368
          },
          "added_by": "GRID3 (racheal.olarewaju)",
          "local_name": "Urua Usung Obot Enang"
        },
        {
          "name": "Use Market Use Ikot Amama, Ibiono Ibom",
          "slug": "use-market-use-ikot-amama-ibiono-ibom",
          "coordinates": {
            "lat": 5.30289,
            "lng": 7.83407
          },
          "added_by": "GRID3 (tosin.williams)",
          "local_name": "Use Use Ikot Amama"
        },
        {
          "name": "Weekely Market Ikot Udo Iket Etok Udo, Ibiono Ibom",
          "slug": "weekely-market-ikot-udo-iket-etok-udo-ibiono-ibom",
          "coordinates": {
            "lat": 5.11007,
            "lng": 7.90599
          },
          "added_by": "GRID3 (racheal.olarewaju)",
          "local_name": "Weekely Ikot Udo Iket Etok Udo"
        }
      ]
    },
    {
      "name": "Ika",
      "slug": "akwa-ibom-ika",
      "markets": [
        {
          "name": "Amayam Market Effen Ibom, Ika",
          "slug": "amayam-market-effen-ibom-ika",
          "coordinates": {
            "lat": 5.01475,
            "lng": 7.51259
          },
          "added_by": "GRID3 (racheal.olarewaju)",
          "local_name": "Amayam Effen Ibom"
        },
        {
          "name": "Anen Akpan Okpokpo Ikot Akpa Offiong, Ika",
          "slug": "anen-akpan-okpokpo-ikot-akpa-offiong-ika",
          "coordinates": {
            "lat": 5.00537,
            "lng": 7.57505
          },
          "added_by": "GRID3 (racheal.olarewaju)",
          "local_name": "Ikot Akpa Offiong"
        },
        {
          "name": "Atim Market Itun Achan, Ika",
          "slug": "atim-market-itun-achan-ika",
          "coordinates": {
            "lat": 5.04061,
            "lng": 7.59609
          },
          "added_by": "GRID3 (racheal.olarewaju)",
          "local_name": "Atim Itun Achan"
        },
        {
          "name": "Central Market Ikot Akpan Abasi, Ika",
          "slug": "central-market-ikot-akpan-abasi-ika",
          "coordinates": {
            "lat": 4.98034,
            "lng": 7.48093
          },
          "added_by": "GRID3 (racheal.olarewaju)",
          "local_name": "Central Ikot Akpan Abasi"
        },
        {
          "name": "Central Market Urua Inyang, Ika",
          "slug": "central-market-urua-inyang-ika",
          "coordinates": {
            "lat": 5.02223,
            "lng": 7.54218
          },
          "added_by": "GRID3 (racheal.olarewaju)",
          "local_name": "Central Urua Inyang"
        },
        {
          "name": "Ekpa Ikot Osukpong Ikot Osukpong, Ika",
          "slug": "ekpa-ikot-osukpong-ikot-osukpong-ika",
          "coordinates": {
            "lat": 5.04683,
            "lng": 7.57197
          },
          "added_by": "GRID3 (racheal.olarewaju)",
          "local_name": "Ekpa Ikot Osukpong Ikot Osukpong"
        },
        {
          "name": "Evening Market Abiakana, Ika",
          "slug": "evening-market-abiakana-ika",
          "coordinates": {
            "lat": 5.04206,
            "lng": 7.5659
          },
          "added_by": "GRID3 (racheal.olarewaju)",
          "local_name": "Evening Abiakana"
        },
        {
          "name": "Ikot Okoro Market Ikot Okoro Ata, Ika",
          "slug": "ikot-okoro-market-ikot-okoro-ata-ika",
          "coordinates": {
            "lat": 5.07006,
            "lng": 7.55067
          },