{
  "name": "Cross River",
  "slug": "cross-river",
  "lgas": [
    {
      "name": "Abi",
      "slug": "cross-river-abi",
      "markets": [
        {
          "name": "Abe Upeh Igbor Market, Abi",
          "slug": "abe-upeh-igbor-market-abi",
          "coordinates": {
            "lat": 5.88603,
            "lng": 7.98925
          },
          "added_by": "GRID3 (racheal.olarewaju)",
          "local_name": "Abe Upeh Igbor"
        },
        {
          "name": "Afafanyi Central, Abi",
          "slug": "afafanyi-central-abi",
          "coordinates": {
            "lat": 5.88689,
            "lng": 7.98946
          },
          "added_by": "GRID3 (racheal.olarewaju)",
          "local_name": "Afafanyi Central"
        },
        {
          "name": "Aji Market, Abi",
          "slug": "aji-market-abi",
          "coordinates": {
            "lat": 5.832611667,
            "lng": 8.010673333
          },
          "added_by": "GRID3 (oluwadare.sewedo)",
          "frequency": "Bi-Weekly",
          "type": "Mixed",
          "local_name": "Aji",
          "days": [
            "Mon",
            "Tue",
            "Wed",
            "Thu",
            "Fri",
            "Sat"
          ]
        },
        {
          "name": "Anong Usumutong Market Stalls, Abi",
          "slug": "anong-usumutong-market-stalls-abi",
          "coordinates": {
            "lat": 5.8952917,
            "lng": 8.0655883
          },
          "added_by": "GRID3 (oluwadare.sewedo)",
          "frequency": "Weekly",
          "type": "Mixed",
          "local_name": "Anong Usumutong Stalls",
          "days": [
            "Wed"
          ]
        },
        {
          "name": "Anor Eborty Central, Abi",
          "slug": "anor-eborty-central-abi",
          "coordinates": {
            "lat": 5.98457,
            "lng": 8.02019
          },
          "added_by": "GRID3 (tosin.williams)",
          "local_name": "Anor Eborty Central"
        },
        {
          "name": "Atani Market, Abi",
          "slug": "atani-market-abi",
          "coordinates": {
            "lat": 5.9275033,
            "lng": 8.0860833
          },
          "added_by": "GRID3 (oluwadare.sewedo)",
          "frequency": "Weekly",
          "type": "Clothing Livestock Food Stuff Mixed",
          "local_name": "Atani",
          "days": [
            "Wed",
            "Sat"
          ]
        },
        {
          "name": "Bazohure Market, Abi",
          "slug": "bazohure-market-abi",
          "coordinates": {
            "lat": 5.8573567,
            "lng": 7.9696567
          },
          "added_by": "GRID3 (oluwadare.sewedo)",
          "frequency": "Weekly",
          "type": "Clothing Food Stuff",
          "local_name": "Bazohure",
          "days": [
            "Wed"
          ]
        },
        {
          "name": "Ediba Market, Abi",
          "slug": "ediba-market-abi",
          "coordinates": {
            "lat": 5.8660283,
            "lng": 8.0271283
          },
          "added_by": "GRID3 (oluwadare.sewedo)",
          "frequency": "Weekly",
          "type": "Food Stuff",
          "local_name": "Ediba",
          "days": [
            "Tue",
            "Thu",
            "Sat"
          ]
        },
        {
          "name": "Egboronyi Market Ikwo, Abi",
          "slug": "egboronyi-market-ikwo-abi",
          "coordinates": {
            "lat": 5.9472933,
            "lng": 8.036655
          },
          "added_by": "GRID3 (oluwadare.sewedo)",
          "frequency": "Other",
          "type": "Food Stuff",
          "local_name": "Egboronyi Ikwo",
          "days": [
            "Tue"
          ]
        },
        {
          "name": "Eghe Osu Market, Abi",
          "slug": "eghe-osu-market-abi",
          "coordinates": {
            "lat": 5.90021,
            "lng": 8.06653
          },
          "added_by": "GRID3 (racheal.olarewaju)",
          "local_name": "Eghe Osu"
        },
        {
          "name": "Enosu Kwe Market, Abi",
          "slug": "enosu-kwe-market-abi",
          "coordinates": {
            "lat": 5.875983333,
            "lng": 8.020545
          },
          "added_by": "GRID3 (oluwadare.sewedo)",
          "frequency": "Weekly",
          "type": "Livestock Food Stuff Mixed",
          "local_name": "Enosu Kwe",
          "days": [
            "Mon",
            "Wed",
            "Thu",
            "Fri",
            "Sat",
            "Sun"
          ]
        },
        {
          "name": "Hozzerapa Market, Abi",
          "slug": "hozzerapa-market-abi",
          "coordinates": {
            "lat": 5.88558,
            "lng": 8.033345
          },
          "added_by": "GRID3 (oluwadare.sewedo)",
          "frequency": "Other",
          "type": "Mixed",
          "local_name": "Hozzerapa",
          "days": [
            "Tue",
            "Thu"
          ]
        },
        {
          "name": "Ibom I Central, Abi",
          "slug": "ibom-i-central-abi",
          "coordinates": {
            "lat": 5.92556,
            "lng": 8.08222
          },
          "added_by": "GRID3 (tosin.williams)",
          "local_name": "Ibom I Central"
        },
        {
          "name": "Ilowen Market, Abi",
          "slug": "ilowen-market-abi",
          "coordinates": {
            "lat": 5.92458,
            "lng": 8.0826
          },
          "added_by": "GRID3 (tosin.williams)",
          "local_name": "Ilowen"
        },
        {
          "name": "Usumutong Market, Abi",
          "slug": "usumutong-market-abi",
          "coordinates": {
            "lat": 5.839421667,
            "lng": 8.012851667
          },
          "added_by": "GRID3 (tosin.williams)",
          "frequency": "Weekly",
          "type": "Mixed",
          "local_name": "Usumutong",
          "days": [
            "Mon",
            "Tue",
            "Wed",
            "Thu",
            "Fri"
          ]
        },
        {
          "name": "Vumvum Market, Abi",
          "slug": "vumvum-market-abi",
          "coordinates": {
            "lat": 5.88739,
            "lng": 8.02376
          },
          "added_by": "GRID3 (racheal.olarewaju)",
          "local_name": "Vumvum"
        }
      ]
    },
    {
      "name": "Akamkpa",
      "slug": "cross-river-akamkpa",
      "markets": [
        {
          "name": "Akamkpa Main Market",
          "slug": "akamkpa-main-market",
          "coordinates": {
            "lat": 5.302841702,
            "lng": 8.357006889
          },
          "added_by": "GRID3 (adanna.alex)",
          "frequency": "Daily",
          "type": "Food Stuff",
          "local_name": "Akamkpa Main",
          "days": [
            "Mon",
            "Tue",
            "Wed",
            "Thu",
            "Fri",
            "Sat",
            "Sun"
          ]
        },
        {
          "name": "Aking Market, Akamkpa",
          "slug": "aking-market-akamkpa",
          "coordinates": {
            "lat": 5.440091667,
            "lng": 8.637513333
          },
          "added_by": "GRID3 (oluwadare.sewedo)",
          "frequency": "Other",
          "type": "Clothing Livestock Food Stuff Mixed",
          "local_name": "Aking",
          "days": [
            "Wed",
            "Fri"
          ]
        },
        {
          "name": "Aningheje Main Market, Akamkpa",
          "slug": "aningheje-main-market-akamkpa",
          "coordinates": {
            "lat": 5.136676667,
            "lng": 8.52462
          },
          "added_by": "GRID3 (oluwadare.sewedo)",
          "frequency": "Other",
          "type": "Food Stuff",
          "local_name": "Aningheje Main",
          "days": [
            "Tue",
            "Fri",
            "Sat"
          ]
        },
        {
          "name": "Awi Market Mfam Koko Village, Akamkpa",
          "slug": "awi-market-mfam-koko-village-akamkpa",
          "coordinates": {
            "lat": 5.245015,
            "lng": 8.366685
          },
          "added_by": "GRID3 (oluwadare.sewedo)",
          "frequency": "Weekly",
          "type": "Clothing Food Stuff Mixed",
          "local_name": "Awi Mfam Koko Village",
          "days": [
            "Tue"
          ]
        },
        {
          "name": "Camp 5 Market, Akamkpa",
          "slug": "camp-5-market-akamkpa",
          "coordinates": {
            "lat": 5.2224603,
            "lng": 8.553119
          },
          "added_by": "GRID3 (oluwadare.sewedo)",
          "frequency": "Weekly",
          "type": "Mixed",
          "local_name": "Camp 5",
          "days": [
            "Tue",
            "Fri"
          ]
        },
        {
          "name": "Dugbem Market, Akamkpa",
          "slug": "dugbem-market-akamkpa",
          "coordinates": {
            "lat": 5.39899,
            "lng": 8.26548
          },
          "added_by": "GRID3 (racheal.olarewaju)",
          "local_name": "Dugbem"
        },
        {
          "name": "Ekong Market, Akamkpa",
          "slug": "ekong-market-akamkpa",
          "coordinates": {
            "lat": 5.27044,
            "lng": 8.566798333
          },
          "added_by": "GRID3 (oluwadare.sewedo)",
          "frequency": "Weekly",
          "type": "Clothing Livestock Electronic Spare Parts Food Stuff Mixed",
          "local_name": "Ekong",
          "days": [
            "Wed"
          ]
        },
        {
          "name": "Ekonganaku Market, Akamkpa",
          "slug": "ekonganaku-market-akamkpa",
          "coordinates": {
            "lat": 5.1009133,
            "lng": 8.65955
          },
          "added_by": "GRID3 (oluwadare.sewedo)",
          "frequency": "Weekly",
          "type": "Clothing Food Stuff Mixed",
          "local_name": "Ekonganaku",
          "days": [
            "Tue",
            "Fri"
          ]
        },
        {
          "name": "Iko Esai Market, Akamkpa",
          "slug": "iko-esai-market-akamkpa",
          "coordinates": {
            "lat": 5.669105,
            "lng": 8.219585
          },
          "added_by": "GRID3 (oluwadare.sewedo)",
          "frequency": "Weekly",
          "type": "Clothing Livestock Electronic Spare Parts Food Stuff Mixed Other",
          "local_name": "Iko Esai",
          "days": [
            "Tue",
            "Thu",
            "Sat"
          ]
        },
        {
          "name": "Mbarakom Main Market, Akamkpa",
          "slug": "mbarakom-main-market-akamkpa",
          "coordinates": {
            "lat": 5.268245,
            "lng": 8.33235
          },
          "added_by": "GRID3 (oluwadare.sewedo)",
          "frequency": "Weekly",
          "type": "Food Stuff Mixed",
          "local_name": "Mbarakom Main",
          "days": [
            "Thu"
          ]
        },
        {
          "name": "Mfaminyen Market, Akamkpa",
          "slug": "mfaminyen-market-akamkpa",
          "coordinates": {
            "lat": 5.657815,
            "lng": 8.838851667
          },
          "added_by": "GRID3 (oluwadare.sewedo)",
          "frequency": "Weekly",
          "type": "Clothing Livestock Food Stuff",
          "local_name": "Mfaminyen",
          "days": [
            "Tue"
          ]
        },
        {
          "name": "Oban Town Market, Akamkpa",
          "slug": "oban-town-market-akamkpa",
          "coordinates": {
            "lat": 5.314758333,
            "lng": 8.576218333
          },
          "added_by": "GRID3 (oluwadare.sewedo)",
          "frequency": "Weekly",
          "type": "Clothing Livestock Electronic Spare Parts Food Stuff Mixed",
          "local_name": "Oban Town",
          "days": [
            "Tue"
          ]
        },
        {
          "name": "Okomita Market, Akamkpa",
          "slug": "okomita-market-akamkpa",
          "coordinates": {
            "lat": 5.3392817,
            "lng": 8.3300833
          },
          "added_by": "GRID3 (oluwadare.sewedo)",
          "frequency": "Weekly",
          "type": "Mixed",
          "local_name": "Okomita",
          "days": [
            "Wed",
            "Sat"
          ]
        },
        {
          "name": "Okomobraya Market, Akamkpa",
          "slug": "okomobraya-market-akamkpa",
          "coordinates": {
            "lat": 5.338865,
            "lng": 8.3315183
          },
          "added_by": "GRID3 (oluwadare.sewedo)",
          "frequency": "Weekly",
          "type": "Mixed",
          "local_name": "Okomobraya",
          "days": [
            "Tue",
            "Fri"
          ]
        },
        {
          "name": "Old Market Squad Akamkpa Urban Town",
          "slug": "old-market-squad-akamkpa-urban-town",
          "coordinates": {
            "lat": 5.314666667,
            "lng": 8.35251
          },
          "added_by": "GRID3 (oluwadare.sewedo)",
          "frequency": "Weekly",
          "type": "Clothing Livestock Food Stuff Mixed",
          "local_name": "Old Squad Akamkpa Urban Town",
          "days": [
            "Mon",
            "Wed",
            "Thu",
            "Fri",
            "Sat",
            "Sun"
          ]
        },
        {
          "name": "Owom Market, Akamkpa",
          "slug": "owom-market-akamkpa",
          "coordinates": {
            "lat": 5.5474883,
            "lng": 8.7976133
          },
          "added_by": "GRID3 (oluwadare.sewedo)",
          "frequency": "Weekly",
          "type": "Mixed",
          "local_name": "Owom Mkt",
          "days": [
            "Mon",
            "Thu",
            "Fri"
          ]
        },
        {
          "name": "Udua Uforo Market, Akamkpa",
          "slug": "udua-uforo-market-akamkpa",
          "coordinates": {
            "lat": 5.0835176,
            "lng": 8.5278029
          },
          "added_by": "GRID3 (oluwadare.sewedo)",
          "frequency": "Weekly",
          "type": "Food Stuff Mixed",
          "local_name": "Udua Uforo",
          "days": [
            "Tue",
            "Thu"
          ]
        },
        {
          "name": "Unicem Larfage Trailer Park Market, Akamkpa",
          "slug": "unicem-larfage-trailer-park-market-akamkpa",
          "coordinates": {
            "lat": 5.0791717,
            "lng": 8.5051283
          },
          "added_by": "GRID3 (oluwadare.sewedo)",
          "frequency": "Weekly",
          "type": "Clothing Food Stuff Mixed Other",
          "local_name": "Unicem Larfage Trailer Park",
          "days": [
            "Mon",
            "Wed",
            "Thu",
            "Fri",
            "Sat",
            "Sun"
          ]
        },
        {
          "name": "Uyanga Market, Akamkpa",
          "slug": "uyanga-market-akamkpa",
          "coordinates": {
            "lat": 5.387341667,
            "lng": 8.255443333
          },
          "added_by": "GRID3 (oluwadare.sewedo)",
          "frequency": "Weekly",
          "type": "Mixed",
          "local_name": "Uyanga",
          "days": [
            "Tue",
            "Fri"
          ]
        }
      ]
    },
    {
      "name": "Akpabuyo",
      "slug": "cross-river-akpabuyo",
      "markets": [
        {
          "name": "Akansoko Market, Akpabuyo",
          "slug": "akansoko-market-akpabuyo",
          "coordinates": {
            "lat": 5.0426683,
            "lng": 8.462035
          },
          "added_by": "GRID3 (oluwadare.sewedo)",
          "frequency": "Weekly",
          "type": "Food Stuff",
          "local_name": "Akansoko",
          "days": [
            "Tue",
            "Fri"
          ]
        },
        {
          "name": "Asabanka Market, Akpabuyo",
          "slug": "asabanka-market-akpabuyo",
          "coordinates": {
            "lat": 5.054948333,
            "lng": 8.424386667
          },
          "added_by": "GRID3 (oluwadare.sewedo)",
          "frequency": "Weekly",
          "type": "Mixed",
          "local_name": "Asabanka",
          "days": [
            "Mon",
            "Tue",
            "Wed",
            "Fri"
          ]
        },
        {
          "name": "Esuk Idebe Market, Akpabuyo",
          "slug": "esuk-idebe-market-akpabuyo",
          "coordinates": {
            "lat": 4.8402317,
            "lng": 8.4196467
          },
          "added_by": "GRID3 (oluwadare.sewedo)",
          "frequency": "Weekly",
          "type": "Mixed",
          "local_name": "Esuk Idebe",
          "days": [
            "Tue",
            "Fri",
            "Sat"
          ]
        },
        {
          "name": "Esuk Mba Market, Akpabuyo",
          "slug": "esuk-mba-market-akpabuyo",
          "coordinates": {
            "lat": 4.8674583,
            "lng": 8.3969
          },
          "added_by": "GRID3 (oluwadare.sewedo)",
          "frequency": "Weekly",
          "type": "Clothing Livestock Food Stuff Mixed",
          "local_name": "Esuk Mba",
          "days": [
            "Tue",
            "Fri",
            "Sat"
          ]
        },
        {
          "name": "Idundu Market, Akpabuyo",
          "slug": "idundu-market-akpabuyo",
          "coordinates": {
            "lat": 5.0149117,
            "lng": 8.39596
          },
          "added_by": "GRID3 (oluwadare.sewedo)",
          "frequency": "Weekly",
          "type": "Livestock",
          "local_name": "Idundu",
          "days": [
            "Tue"
          ]
        },
        {
          "name": "Ifiang Camp 1 Market, Akpabuyo",
          "slug": "ifiang-camp-1-market-akpabuyo",
          "coordinates": {
            "lat": 4.8525967,
            "lng": 8.5502817
          },
          "added_by": "GRID3 (oluwadare.sewedo)",
          "frequency": "Weekly",
          "type": "Clothing Livestock Food Stuff Mixed",
          "local_name": "Ifiang Camp 1",
          "days": [
            "Wed"
          ]
        },
        {
          "name": "Ikot Ekpo Edem Market, Akpabuyo",
          "slug": "ikot-ekpo-edem-market-akpabuyo",
          "coordinates": {
            "lat": 4.944905,
            "lng": 8.5696983
          },
          "added_by": "GRID3 (oluwadare.sewedo)",
          "frequency": "Other",
          "type": "Food Stuff",
          "local_name": "Ikot Ekpo Edem",
          "days": [
            "Mon",
            "Fri",
            "Sat"
          ]
        },
        {
          "name": "Ikot Nakanda Market, Akpabuyo",
          "slug": "ikot-nakanda-market-akpabuyo",
          "coordinates": {
            "lat": 4.8861867,
            "lng": 8.4750167
          },
          "added_by": "GRID3 (oluwadare.sewedo)",
          "frequency": "Bi-Weekly",
          "type": "Food Stuff",
          "local_name": "Ikot Nakanda",
          "days": [
            "Mon",
            "Tue",
            "Wed",
            "Fri"
          ]
        },
        {
          "name": "Ikot Ndarakeikot Oyom Market, Akpabuyo",
          "slug": "ikot-ndarakeikot-oyom-market-akpabuyo",
          "coordinates": {
            "lat": 4.94251,
            "lng": 8.4334217
          },
          "added_by": "GRID3 (oluwadare.sewedo)",
          "frequency": "Other",
          "type": "Food Stuff",
          "local_name": "Ikot NdarakeIkot Oyom",
          "days": [
            "Tue",
            "Wed"
          ]
        },
        {
          "name": "Ikot Oyom Market, Akpabuyo",
          "slug": "ikot-oyom-market-akpabuyo",
          "coordinates": {
            "lat": 4.94223,
            "lng": 8.4328583
          },
          "added_by": "GRID3 (oluwadare.sewedo)",
          "frequency": "Other",
          "type": "Food Stuff Mixed",
          "local_name": "Ikot Oyom",
          "days": [
            "Tue",
            "Wed"
          ]
        },
        {
          "name": "Udua Mpruk Market, Akpabuyo",
          "slug": "udua-mpruk-market-akpabuyo",
          "coordinates": {
            "lat": 4.9741733,
            "lng": 8.53986
          },
          "added_by": "GRID3 (oluwadare.sewedo)",
          "frequency": "Weekly",
          "type": "Clothing Livestock Food Stuff",
          "local_name": "Udua Mpruk",
          "days": [
            "Mon",
            "Sat"
          ]
        },
        {
          "name": "Udua Nyom Ebe Market, Akpabuyo",
          "slug": "udua-nyom-ebe-market-akpabuyo",
          "coordinates": {
            "lat": 4.9825431,
            "lng": 8.5048294
          },
          "added_by": "GRID3 (oluwadare.sewedo)",
          "frequency": "Weekly",
          "type": "Clothing Food Stuff Mixed",
          "local_name": "Udua Nyom Ebe",
          "days": [
            "Tue",
            "Sat"
          ]
        }
      ]
    },
    {
      "name": "Bakassi",
      "slug": "cross-river-bakassi",
      "markets": [
        {
          "name": "Ekpri Ikang Market, Bakassi",
          "slug": "ekpri-ikang-market-bakassi",
          "coordinates": {
            "lat": 4.8336917,
            "lng": 8.5055133
          },
          "added_by": "GRID3 (oluwadare.sewedo)",
          "frequency": "Weekly",
          "type": "Clothing Livestock Food Stuff Mixed",
          "local_name": "Ekpri Ikang",
          "days": [
            "Tue",
            "Thu",
            "Sat"
          ]
        },
        {
          "name": "Ikang Market, Bakassi",
          "slug": "ikang-market-bakassi",
          "coordinates": {
            "lat": 4.7903117,
            "lng": 8.5317467
          },
          "added_by": "GRID3 (oluwadare.sewedo)",
          "frequency": "Other",
          "type": "Mixed",
          "local_name": "Ikang",
          "days": [
            "Fri"
          ]
        }
      ]
    },
    {
      "name": "Bekwara",
      "slug": "cross-river-bekwara",
      "markets": [
        {
          "name": "Achanya Ikanda Market, Bekwara",
          "slug": "achanya-ikanda-market-bekwara",
          "coordinates": {
            "lat": 6.7353267,
            "lng": 8.9492168
          },
          "added_by": "GRID3 (oluwadare.sewedo)",
          "frequency": "Weekly",
          "type": "Other",
          "local_name": "Achanya Ikanda",
          "days": [
            "Mon",
            "Tue",
            "Wed",
            "Thu",
            "Fri"
          ]
        },
        {
          "name": "Iriya Ikwan Market Ebegang, Bekwara",
          "slug": "iriya-ikwan-market-ebegang-bekwara",
          "coordinates": {
            "lat": 6.6766246,
            "lng": 8.908619
          },
          "added_by": "GRID3 (oluwadare.sewedo)",
          "frequency": "Other",
          "type": "Food Stuff",
          "local_name": "Iriya Ikwan Ebegang",
          "days": [
            "Mon",
            "Wed",
            "Thu",
            "Fri",
            "Sat",
            "Sun"
          ]
        },
        {
          "name": "Iriyaactuam Market, Bekwara",
          "slug": "iriyaactuam-market-bekwara",
          "coordinates": {
            "lat": 6.655769,
            "lng": 8.903164
          },
          "added_by": "GRID3 (oluwadare.sewedo)",
          "frequency": "Weekly",
          "type": "Clothing Livestock Food Stuff",
          "local_name": "Iriyaactuam",
          "days": [
            "Tue",
            "Thu"
          ]
        },
        {
          "name": "Mosmira Super Market, Bekwara",
          "slug": "mosmira-super-market-bekwara",
          "coordinates": {
            "lat": 6.7001816,
            "lng": 8.9123612
          },
          "added_by": "GRID3 (oluwadare.sewedo)",
          "frequency": "Weekly",
          "type": "Mixed Other",
          "local_name": "Ezekobe market",
          "days": [
            "Mon",
            "Wed",
            "Thu",
            "Fri",
            "Sat",
            "Sun"
          ]
        },
        {
          "name": "Obanishe Market Ochagbe, Bekwara",
          "slug": "obanishe-market-ochagbe-bekwara",
          "coordinates": {
            "lat": 6.59632,
            "lng": 8.9024983
          },
          "added_by": "GRID3 (oluwadare.sewedo)",
          "frequency": "Weekly",
          "type": "Food Stuff",
          "local_name": "Obanishe Ochagbe",
          "days": [
            "Mon",
            "Wed",
            "Thu",
            "Fri",
            "Sat",
            "Sun"
          ]
        },
        {
          "name": "Ochabge Market, Bekwara",
          "slug": "ochabge-market-bekwara",
          "coordinates": {
            "lat": 6.5966113,
            "lng": 8.9023101
          },
          "added_by": "GRID3 (oluwadare.sewedo)",
          "frequency": "Weekly",
          "type": "Clothing Livestock Food Stuff",
          "local_name": "Ochabge",
          "days": [
            "Mon",
            "Sat"
          ]
        },
        {
          "name": "Ochanja Market Nyanya, Bekwara",
          "slug": "ochanja-market-nyanya-bekwara",
          "coordinates": {
            "lat": 6.6993529,
            "lng": 8.9119895
          },
          "added_by": "GRID3 (oluwadare.sewedo)",
          "frequency": "Weekly",
          "type": "Food Stuff Mixed",
          "local_name": "Ochanja Nyanya",
          "days": [
            "Mon",
            "Wed",
            "Thu",
            "Fri",
            "Sat",
            "Sun"
          ]
        },
        {
          "name": "Okpeche Market, Bekwara",
          "slug": "okpeche-market-bekwara",
          "coordinates": {
            "lat": 6.6075686,
            "lng": 8.8608167
          },
          "added_by": "GRID3 (oluwadare.sewedo)",
          "frequency": "Weekly",
          "type": "Food Stuff Other",
          "local_name": "Mbayar",
          "days": [
            "Mon",
            "Fri"
          ]
        },
        {
          "name": "Old Ogidi Market Anyikang Ibiaragidi, Bekwara",
          "slug": "old-ogidi-market-anyikang-ibiaragidi-bekwara",
          "coordinates": {
            "lat": 6.6833375,
            "lng": 8.8839703
          },
          "added_by": "GRID3 (oluwadare.sewedo)",
          "frequency": "Weekly",
          "type": "Mixed",
          "local_name": "Old Ogidi Anyikang Ibiaragidi",
          "days": [
            "Mon",
            "Wed",
            "Thu",
            "Fri",
            "Sat",
            "Sun"
          ]
        },
        {
          "name": "Udama Market, Bekwara",
          "slug": "udama-market-bekwara",
          "coordinates": {
            "lat": 6.761607,
            "lng": 8.94063
          },
          "added_by": "GRID3 (oluwadare.sewedo)",
          "frequency": "Weekly",
          "type": "Mixed",
          "local_name": "Udama",
          "days": [
            "Mon",
            "Wed",
            "Thu",
            "Fri",
            "Sat",
            "Sun"
          ]
        },
        {
          "name": "Ugbada Market Ukpah Iribu, Bekwara",
          "slug": "ugbada-market-ukpah-iribu-bekwara",
          "coordinates": {
            "lat": 6.625497,
            "lng": 8.9162581
          },
          "added_by": "GRID3 (oluwadare.sewedo)",
          "frequency": "Weekly",
          "type": "Other",
          "local_name": "Ugbada Ukpah Iribu",
          "days": [
            "Wed"
          ]
        },
        {
          "name": "Ugidi Market, Bekwara",
          "slug": "ugidi-market-bekwara",
          "coordinates": {
            "lat": 6.6997238,
            "lng": 8.911321
          },
          "added_by": "GRID3 (oluwadare.sewedo)",
          "frequency": "Weekly",
          "type": "Mixed",
          "local_name": "Ugidi",
          "days": [
            "Mon",
            "Fri"
          ]
        }
      ]
    },
    {
      "name": "Biase",
      "slug": "cross-river-biase",
      "markets": [
        {
          "name": "Abanwan Beach Market, Biase",
          "slug": "abanwan-beach-market-biase",
          "coordinates": {
            "lat": 5.69809,
            "lng": 7.97484
          },
          "added_by": "GRID3 (racheal.olarewaju)",
          "local_name": "Abanwan Beach"
        },
        {
          "name": "Abaribara Market, Biase",
          "slug": "abaribara-market-biase",
          "coordinates": {
            "lat": 5.74694,
            "lng": 7.98291
          },
          "added_by": "GRID3 (oluwadare.sewedo)",
          "frequency": "Weekly",
          "type": "Food Stuff",
          "local_name": "Abaribara"
        },
        {
          "name": "Abeijang Market, Biase",
          "slug": "abeijang-market-biase",
          "coordinates": {
            "lat": 5.764815,
            "lng": 7.974265
          },
          "added_by": "GRID3 (oluwadare.sewedo)",
          "frequency": "Weekly",
          "type": "Mixed",
          "local_name": "Abeijang"
        },
        {
          "name": "Abini Market, Biase",
          "slug": "abini-market-biase",
          "coordinates": {
            "lat": 5.6916467,
            "lng": 8.0606567
          },
          "added_by": "GRID3 (oluwadare.sewedo)",
          "frequency": "Other",
          "type": "Food Stuff",
          "local_name": "Abini",
          "days": [
            "Tue",
            "Wed",
            "Thu",
            "Fri",
            "Sat"
          ]
        },
        {
          "name": "Afono Community Market, Biase",
          "slug": "afono-community-market-biase",
          "coordinates": {
            "lat": 5.734915,
            "lng": 7.94639
          },
          "added_by": "GRID3 (oluwadare.sewedo)",
          "frequency": "Weekly",
          "type": "Food Stuff",
          "local_name": "Afono Community",
          "days": [
            "Mon",
            "Wed",
            "Thu",
            "Fri",
            "Sat",
            "Sun"
          ]
        },
        {
          "name": "Agwagune Community Market, Biase",
          "slug": "agwagune-community-market-biase",
          "coordinates": {
            "lat": 5.6796117,
            "lng": 8.00904
          },
          "added_by": "GRID3 (oluwadare.sewedo)",
          "frequency": "Weekly",
          "type": "Mixed",
          "local_name": "Agwagune Community",
          "days": [
            "Fri"
          ]
        },
        {
          "name": "Akparavuni Market Agori, Biase",
          "slug": "akparavuni-market-agori-biase",
          "coordinates": {
            "lat": 5.553245,
            "lng": 8.1091033
          },
          "added_by": "GRID3 (oluwadare.sewedo)",
          "frequency": "Weekly",
          "type": "Clothing Food Stuff Mixed",
          "local_name": "Akparavuni Agori",
          "days": [
            "Mon",
            "Wed",
            "Thu",
            "Fri",
            "Sat",
            "Sun"
          ]
        },
        {
          "name": "Akparavuni Market, Biase",
          "slug": "akparavuni-market-biase",
          "coordinates": {
            "lat": 5.55513,
            "lng": 8.112155
          },
          "added_by": "GRID3 (oluwadare.sewedo)",
          "frequency": "Other",
          "type": "Livestock Food Stuff Mixed Other",
          "local_name": "Akparavuni",
          "days": [
            "Tue",
            "Sat"
          ]
        },
        {
          "name": "Akpet Central Shopping Complex, Biase",
          "slug": "akpet-central-shopping-complex-biase",
          "coordinates": {
            "lat": 5.6218167,
            "lng": 8.1014867
          },
          "added_by": "GRID3 (oluwadare.sewedo)",
          "frequency": "Weekly",
          "type": "Other",
          "local_name": "Akpet Central Shopping Complex",
          "days": [
            "Tue",
            "Wed",
            "Thu",
            "Fri",
            "Sat"
          ]
        },
        {
          "name": "Betem Market, Biase",
          "slug": "betem-market-biase",
          "coordinates": {
            "lat": 5.501995,
            "lng": 8.155555
          },
          "added_by": "GRID3 (oluwadare.sewedo)",
          "frequency": "Weekly",
          "type": "Other",
          "local_name": "Betem",
          "days": [
            "Mon",
            "Tue",
            "Wed",
            "Thu",
            "Fri",
            "Sat"
          ]
        },
        {
          "name": "Biakpan Market, Biase",
          "slug": "biakpan-market-biase",
          "coordinates": {
            "lat": 5.5858033,
            "lng": 7.9323433
          },
          "added_by": "GRID3 (oluwadare.sewedo)",
          "frequency": "Weekly",
          "type": "Clothing Food Stuff Mixed",
          "local_name": "Biakpan",
          "days": [
            "Tue",
            "Wed",
            "Thu",
            "Fri",
            "Sat"
          ]
        },
        {
          "name": "Ehom Central Market, Biase",
          "slug": "ehom-central-market-biase",
          "coordinates": {
            "lat": 5.4669017,
            "lng": 8.1390983
          },
          "added_by": "GRID3 (oluwadare.sewedo)",
          "frequency": "Weekly",
          "type": "Clothing Livestock Electronic Spare Parts Food Stuff Mixed",
          "local_name": "Ehom Central",
          "days": [
            "Mon",
            "Tue",
            "Wed",
            "Thu",
            "Fri",
            "Sat"
          ]
        },
        {
          "name": "Etono 2 Market, Biase",
          "slug": "etono-2-market-biase",
          "coordinates": {
            "lat": 5.58506,
            "lng": 7.9405167
          },
          "added_by": "GRID3 (oluwadare.sewedo)",
          "frequency": "Weekly",
          "type": "Mixed",
          "local_name": "Etono 2",
          "days": [
            "Tue",
            "Wed",
            "Thu",
            "Fri",
            "Sat"
          ]
        },
        {
          "name": "Etono Central Market, Biase",
          "slug": "etono-central-market-biase",
          "coordinates": {
            "lat": 5.632355,
            "lng": 8.0190567
          },
          "added_by": "GRID3 (oluwadare.sewedo)",
          "frequency": "Weekly",
          "type": "Mixed",
          "local_name": "Etono Central",
          "days": [
            "Fri"
          ]
        },
        {
          "name": "Fufu Market, Biase",
          "slug": "fufu-market-biase",
          "coordinates": {
            "lat": 5.50064,
            "lng": 8.1152067
          },
          "added_by": "GRID3 (oluwadare.sewedo)",
          "frequency": "Weekly",
          "type": "Clothing Livestock Food Stuff Mixed",
          "local_name": "Fufu",
          "days": [
            "Wed"
          ]
        },
        {
          "name": "Ibini Community Market, Biase",
          "slug": "ibini-community-market-biase",
          "coordinates": {
            "lat": 5.7440333,
            "lng": 7.9564433
          },
          "added_by": "GRID3 (oluwadare.sewedo)",
          "frequency": "Other",
          "type": "Livestock",
          "local_name": "Ibini Community",
          "days": [
            "Mon",
            "Wed",
            "Thu",
            "Fri",
            "Sat",
            "Sun"
          ]
        },
        {
          "name": "Idoma Community Market, Biase",
          "slug": "idoma-community-market-biase",
          "coordinates": {
            "lat": 5.51914,
            "lng": 8.1799783
          },
          "added_by": "GRID3 (oluwadare.sewedo)",
          "frequency": "Weekly",
          "type": "Mixed",
          "local_name": "Idoma Community",
          "days": [
            "Mon",
            "Fri"
          ]
        },
        {
          "name": "Igbofia Market, Biase",
          "slug": "igbofia-market-biase",
          "coordinates": {
            "lat": 5.5085433,
            "lng": 8.1082633
          },
          "added_by": "GRID3 (oluwadare.sewedo)",
          "frequency": "Weekly",
          "type": "Mixed",
          "local_name": "Igbofia",
          "days": [
            "Wed"
          ]
        },
        {
          "name": "Ikot Okpora Market, Biase",
          "slug": "ikot-okpora-market-biase",
          "coordinates": {
            "lat": 5.40855,
            "lng": 8.067825
          },
          "added_by": "GRID3 (oluwadare.sewedo)",
          "frequency": "Weekly",
          "type": "Livestock Food Stuff",
          "local_name": "Ikot Okpora",
          "days": [
            "Tue"
          ]
        },
        {
          "name": "Ikun Community Market, Biase",
          "slug": "ikun-community-market-biase",
          "coordinates": {
            "lat": 5.6508233,
            "lng": 7.9639283
          },
          "added_by": "GRID3 (oluwadare.sewedo)",
          "frequency": "Weekly",
          "type": "Clothing Livestock Food Stuff Mixed",
          "local_name": "Ikun Community",
          "days": [
            "Wed"
          ]
        },
        {
          "name": "Iwuru Central Market, Biase",
          "slug": "iwuru-central-market-biase",
          "coordinates": {
            "lat": 5.4011917,
            "lng": 8.222995
          },
          "added_by": "GRID3 (oluwadare.sewedo)",
          "frequency": "Weekly",
          "type": "Clothing Livestock Food Stuff",
          "local_name": "Iwuru Central",
          "days": [
            "Wed",
            "Sat"
          ]
        },
        {
          "name": "Iwuru Obio Ntan Market, Biase",
          "slug": "iwuru-obio-ntan-market-biase",
          "coordinates": {
            "lat": 5.42104,
            "lng": 8.1780617
          },
          "added_by": "GRID3 (oluwadare.sewedo)",
          "frequency": "Bi-Weekly",
          "type": "Mixed",
          "local_name": "Iwuru Obio Ntan",
          "days": [
            "Mon",
            "Thu"
          ]
        },
        {
          "name": "Okurike Market, Biase",
          "slug": "okurike-market-biase",
          "coordinates": {
            "lat": 5.615685,
            "lng": 8.04658
          },
          "added_by": "GRID3 (oluwadare.sewedo)",
          "frequency": "Bi-Weekly",
          "type": "Clothing Livestock Food Stuff Mixed",
          "local_name": "Okurike",
          "days": [
            "Tue",
            "Wed",
            "Thu",
            "Fri",
            "Sat"
          ]
        },
        {
          "name": "Ugbem Market, Biase",
          "slug": "ugbem-market-biase",
          "coordinates": {
            "lat": 5.5911,
            "lng": 8.02551
          },
          "added_by": "GRID3 (oluwadare.sewedo)",
          "frequency": "Weekly",
          "type": "Clothing Livestock Electronic Spare Parts Food Stuff Mixed",
          "local_name": "Ugbem",
          "days": [
            "Mon",
            "Tue",
            "Wed",
            "Thu",
            "Fri",
            "Sat"
          ]
        },
        {
          "name": "Urugbam Market, Biase",
          "slug": "urugbam-market-biase",
          "coordinates": {
            "lat": 5.73242,
            "lng": 7.9266183
          },
          "added_by": "GRID3 (oluwadare.sewedo)",
          "frequency": "Weekly",
          "type": "Clothing Livestock Food Stuff Mixed",
          "local_name": "Urugbam",
          "days": [
            "Fri"
          ]
        }
      ]
    },
    {
      "name": "Boki",
      "slug": "cross-river-boki",
      "markets": [
        {
          "name": "Bankpor Market, Boki",
          "slug": "bankpor-market-boki",
          "coordinates": {
            "lat": 6.50435,
            "lng": 8.93074
          },
          "added_by": "GRID3 (racheal.olarewaju)",
          "local_name": "Bankpor"
        },
        {
          "name": "Basan Market, Boki",
          "slug": "basan-market-boki",
          "coordinates": {
            "lat": 6.344696,
            "lng": 8.8238871
          },
          "added_by": "GRID3 (oluwadare.sewedo)",
          "frequency": "Other",
          "type": "Food Stuff Other",
          "local_name": "Basan",
          "days": [
            "Tue",
            "Fri",
            "Sat"
          ]
        },
        {
          "name": "Bateriko Market, Boki",
          "slug": "bateriko-market-boki",
          "coordinates": {
            "lat": 6.48171,
            "lng": 9.13818
          },
          "added_by": "GRID3 (racheal.olarewaju)",
          "local_name": "Bateriko"
        },
        {
          "name": "Batriku Market, Boki",
          "slug": "batriku-market-boki",
          "coordinates": {
            "lat": 6.4862283,
            "lng": 9.1533283
          },
          "added_by": "GRID3 (oluwadare.sewedo)",
          "frequency": "Weekly",
          "type": "Mixed",
          "local_name": "Batriku",
          "days": [
            "Mon",
            "Fri"
          ]
        },
        {
          "name": "Begbo Bawop Market, Boki",
          "slug": "begbo-bawop-market-boki",
          "coordinates": {
            "lat": 6.4970567,
            "lng": 8.8287697
          },
          "added_by": "GRID3 (oluwadare.sewedo)",
          "frequency": "Weekly",
          "type": "Clothing Livestock Electronic Spare Parts Food Stuff",
          "local_name": "Begbo Bawop",
          "days": [
            "Tue"
          ]
        },
        {
          "name": "Bekpor Market, Boki",
          "slug": "bekpor-market-boki",
          "coordinates": {
            "lat": 6.4944362,
            "lng": 8.9582483
          },
          "added_by": "GRID3 (oluwadare.sewedo)",
          "frequency": "Other",
          "type": "Food Stuff",
          "local_name": "Bekpor",
          "days": [
            "Mon",
            "Tue",
            "Fri"
          ]
        },
        {
          "name": "Biajua Market, Boki",
          "slug": "biajua-market-boki",
          "coordinates": {
            "lat": 6.003826667,
            "lng": 9.005281667
          },
          "added_by": "GRID3 (oluwadare.sewedo)",
          "frequency": "Weekly",
          "type": "Clothing Livestock Food Stuff Mixed",
          "local_name": "Biajua",
          "days": [
            "Mon",
            "Wed",
            "Thu",
            "Fri",
            "Sat",
            "Sun"
          ]
        },
        {
          "name": "Biakwan Market, Boki",
          "slug": "biakwan-market-boki",
          "coordinates": {
            "lat": 6.068601667,
            "lng": 8.912875
          },
          "added_by": "GRID3 (oluwadare.sewedo)",
          "frequency": "Weekly",
          "type": "Clothing Livestock Food Stuff Mixed",
          "local_name": "Biakwan",
          "days": [
            "Tue",
            "Fri",
            "Sat"
          ]
        },
        {
          "name": "Biakwan Old Market Square, Boki",
          "slug": "biakwan-old-market-square-boki",
          "coordinates": {
            "lat": 6.0740717,
            "lng": 8.9193817
          },
          "added_by": "GRID3 (oluwadare.sewedo)",
          "frequency": "Weekly",
          "type": "Food Stuff",
          "local_name": "Biakwan Old Square",
          "days": [
            "Tue",
            "Fri",
            "Sat"
          ]
        },
        {
          "name": "Bitiah Market, Boki",
          "slug": "bitiah-market-boki",
          "coordinates": {
            "lat": 6.4662575,
            "lng": 8.9392933
          },
          "added_by": "GRID3 (oluwadare.sewedo)",
          "frequency": "Weekly",
          "type": "Food Stuff Mixed Other",
          "local_name": "Bitiah",
          "days": [
            "Tue",
            "Thu",
            "Fri"
          ]
        },
        {
          "name": "Boje Market, Boki",
          "slug": "boje-market-boki",
          "coordinates": {
            "lat": 6.2741067,
            "lng": 8.9198533
          },
          "added_by": "GRID3 (oluwadare.sewedo)",
          "frequency": "Weekly",
          "type": "Mixed",
          "local_name": "Boje",
          "days": [
            "Tue",
            "Fri",
            "Sat"
          ]
        },
        {
          "name": "Bokalum Market, Boki",
          "slug": "bokalum-market-boki",
          "coordinates": {
            "lat": 6.3425224,
            "lng": 9.1158416
          },
          "added_by": "GRID3 (oluwadare.sewedo)",
          "frequency": "Weekly",
          "type": "Clothing Food Stuff",
          "local_name": "Bokalum",
          "days": [
            "Tue",
            "Thu"
          ]
        },
        {
          "name": "Boki Farm 111 Market",
          "slug": "boki-farm-111-market",
          "coordinates": {
            "lat": 6.4267209,
            "lng": 8.8490842
          },
          "added_by": "GRID3 (oluwadare.sewedo)",
          "frequency": "Weekly",
          "type": "Mixed",
          "local_name": "Boki Farm 3",
          "days": [
            "Mon",
            "Tue",
            "Fri"
          ]
        },
        {
          "name": "Bunyah Irruan Main Market, Boki",
          "slug": "bunyah-irruan-main-market-boki",
          "coordinates": {
            "lat": 6.498808293,
            "lng": 8.971860563
          },
          "added_by": "GRID3 (adanna.alex)",
          "type": "Food Stuff",
          "local_name": "Bunyah-irruan Main"
        },
        {
          "name": "Bunyia Bekpor Community Market, Boki",
          "slug": "bunyia-bekpor-community-market-boki",
          "coordinates": {
            "lat": 6.4945333,
            "lng": 8.9578933
          },
          "added_by": "GRID3 (oluwadare.sewedo)",
          "frequency": "Weekly",
          "type": "Mixed",
          "local_name": "Bunyia Bekpor Community",
          "days": [
            "Tue",
            "Thu",
            "Fri"
          ]
        },
        {
          "name": "Bunyia Market, Boki",
          "slug": "bunyia-market-boki",
          "coordinates": {
            "lat": 6.50264,
            "lng": 8.96793
          },
          "added_by": "GRID3 (racheal.olarewaju)",
          "local_name": "Bunyia"
        },
        {
          "name": "Butatong Market, Boki",
          "slug": "butatong-market-boki",
          "coordinates": {
            "lat": 6.4151095,
            "lng": 9.148317
          },
          "added_by": "GRID3 (oluwadare.sewedo)",
          "frequency": "Weekly",
          "type": "Food Stuff",
          "local_name": "Butatong",
          "days": [
            "Mon"
          ]
        },
        {
          "name": "Ebam Market, Boki",
          "slug": "ebam-market-boki",
          "coordinates": {
            "lat": 6.3970363,
            "lng": 8.8807895
          },
          "added_by": "GRID3 (oluwadare.sewedo)",
          "frequency": "Weekly",
          "type": "Clothing Food Stuff",
          "local_name": "Ebam",
          "days": [
            "Wed"
          ]
        },
        {
          "name": "Ebranta Market, Boki",
          "slug": "ebranta-market-boki",
          "coordinates": {
            "lat": 6.2886883,
            "lng": 8.925995
          },
          "added_by": "GRID3 (oluwadare.sewedo)",
          "frequency": "Weekly",
          "type": "Mixed",
          "local_name": "Ebranta",
          "days": [
            "Tue"
          ]
        },
        {
          "name": "Esom Achue Central Market, Boki",
          "slug": "esom-achue-central-market-boki",
          "coordinates": {
            "lat": 6.473936667,
            "lng": 8.981826667
          },
          "added_by": "GRID3 (oluwadare.sewedo)",
          "frequency": "Weekly",
          "type": "Mixed",
          "local_name": "Esom-achue Central",
          "days": [
            "Wed"
          ]
        },
        {
          "name": "Iso Ben Market, Boki",
          "slug": "iso-ben-market-boki",
          "coordinates": {
            "lat": 6.2302809,
            "lng": 8.8117894
          },
          "added_by": "GRID3 (oluwadare.sewedo)",
          "frequency": "Weekly",
          "type": "Food Stuff",
          "local_name": "Iso-ben",
          "days": [
            "Mon",
            "Tue"
          ]
        },
        {
          "name": "Kachuan Market, Boki",
          "slug": "kachuan-market-boki",
          "coordinates": {
            "lat": 6.4814466,
            "lng": 8.9154191
          },
          "added_by": "GRID3 (oluwadare.sewedo)",
          "frequency": "Other",
          "type": "Other",
          "local_name": "Kachuan",
          "days": [
            "Wed"
          ]
        },
        {
          "name": "Kakwagom Market, Boki",
          "slug": "kakwagom-market-boki",
          "coordinates": {
            "lat": 6.4535167,
            "lng": 8.9379767
          },
          "added_by": "GRID3 (oluwadare.sewedo)",
          "frequency": "Weekly",
          "type": "Food Stuff",
          "local_name": "Kakwagom",
          "days": [
            "Tue",
            "Thu",
            "Fri"
          ]
        },
        {
          "name": "Katchuan Market, Boki",
          "slug": "katchuan-market-boki",
          "coordinates": {
            "lat": 6.47585,
            "lng": 8.92151
          },
          "added_by": "GRID3 (racheal.olarewaju)",
          "local_name": "Katchuan"
        },
        {
          "name": "Market Abo Ogbagante, Boki",
          "slug": "market-abo-ogbagante-boki",
          "coordinates": {
            "lat": 6.1592645,
            "lng": 9.0221285
          },
          "added_by": "GRID3 (oluwadare.sewedo)",
          "frequency": "Other",
          "type": "Clothing Livestock Electronic Spare Parts Food Stuff Mixed",
          "local_name": "Abo Ogbagante",
          "days": [
            "Tue"
          ]
        },
        {
          "name": "Nashua Market, Boki",
          "slug": "nashua-market-boki",
          "coordinates": {
            "lat": 6.082303333,
            "lng": 8.977686667
          },
          "added_by": "GRID3 (oluwadare.sewedo)",
          "frequency": "Weekly",
          "type": "Other",
          "local_name": "Nashua",
          "days": [
            "Tue",
            "Thu"
          ]
        },
        {
          "name": "Ndemechang Market, Boki",
          "slug": "ndemechang-market-boki",
          "coordinates": {
            "lat": 6.46615,
            "lng": 8.99402
          },
          "added_by": "GRID3 (racheal.olarewaju)",
          "local_name": "Ndemechang"
        },
        {
          "name": "Nsadop Market, Boki",
          "slug": "nsadop-market-boki",
          "coordinates": {
            "lat": 6.33901,
            "lng": 8.82518
          },
          "added_by": "GRID3 (racheal.olarewaju)",
          "local_name": "Nsadop"
        },
        {
          "name": "Obudu Market, Boki",
          "slug": "obudu-market-boki",
          "coordinates": {
            "lat": 6.4132073,
            "lng": 8.8806934
          },
          "added_by": "GRID3 (oluwadare.sewedo)",
          "frequency": "Weekly",
          "type": "Mixed",
          "local_name": "Obudu",
          "days": [
            "Mon"
          ]
        },
        {
          "name": "Ojia Market Nkim Osokom, Boki",
          "slug": "ojia-market-nkim-osokom-boki",
          "coordinates": {
            "lat": 6.3928633,
            "lng": 8.7464133
          },
          "added_by": "GRID3 (oluwadare.sewedo)",
          "frequency": "Weekly",
          "type": "Mixed",
          "local_name": "Ojia Nkim Osokom",
          "days": [
            "Wed"
          ]
        },
        {
          "name": "Oku Aro Market, Boki",
          "slug": "oku-aro-market-boki",
          "coordinates": {
            "lat": 6.531798333,
            "lng": 8.806233333
          },
          "added_by": "GRID3 (oluwadare.sewedo)",
          "frequency": "Weekly",
          "type": "Clothing Livestock Food Stuff Mixed",
          "local_name": "Oku Aro",
          "days": [
            "Mon",
            "Tue",
            "Fri"
          ]
        },
        {
          "name": "Okubuchi Market, Boki",
          "slug": "okubuchi-market-boki",
          "coordinates": {
            "lat": 6.4774,
            "lng": 8.98024
          },
          "added_by": "GRID3 (racheal.olarewaju)",
          "local_name": "Okubuchi"
        },
        {
          "name": "Okundi Market, Boki",
          "slug": "okundi-market-boki",
          "coordinates": {
            "lat": 6.441097225,
            "lng": 8.788202518
          },
          "added_by": "GRID3 (racheal.olarewaju)",
          "local_name": "Okundi"
        },
        {
          "name": "Okundi Timber Market, Boki",
          "slug": "okundi-timber-market-boki",
          "coordinates": {
            "lat": 6.44616,
            "lng": 8.79745
          },
          "added_by": "GRID3 (racheal.olarewaju)",
          "local_name": "Okundi Timber"
        },
        {
          "name": "Okwabang Central Market, Boki",
          "slug": "okwabang-central-market-boki",
          "coordinates": {
            "lat": 6.4569928,
            "lng": 9.1329958
          },
          "added_by": "GRID3 (oluwadare.sewedo)",
          "frequency": "Other",
          "type": "Food Stuff",
          "local_name": "Okwabang Central",
          "days": [
            "Tue"
          ]
        },
        {
          "name": "Olum Market, Boki",
          "slug": "olum-market-boki",
          "coordinates": {
            "lat": 6.377566667,
            "lng": 9.04039
          },
          "added_by": "GRID3 (oluwadare.sewedo)",
          "frequency": "Weekly",
          "type": "Clothing Livestock Electronic Spare Parts Food Stuff Mixed",
          "local_name": "Olum",
          "days": [
            "Tue",
            "Fri",
            "Sat"
          ]
        },
        {
          "name": "Timber Market, Boki",
          "slug": "timber-market-boki",
          "coordinates": {
            "lat": 6.4392333,
            "lng": 8.7795367
          },
          "added_by": "GRID3 (oluwadare.sewedo)",
          "frequency": "Weekly",
          "type": "Other",
          "local_name": "Timber",
          "days": [
            "Mon",
            "Tue",
            "Wed",
            "Thu",
            "Fri",
            "Sat"
          ]
        },
        {
          "name": "Ubong Market, Boki",
          "slug": "ubong-market-boki",
          "coordinates": {
            "lat": 6.42636,
            "lng": 9.08527
          },
          "added_by": "GRID3 (racheal.olarewaju)",
          "local_name": "Ubong"
        },
        {
          "name": "Wula Market, Boki",
          "slug": "wula-market-boki",
          "coordinates": {
            "lat": 6.3903267,
            "lng": 9.1076917
          },
          "added_by": "GRID3 (oluwadare.sewedo)",
          "frequency": "Other",
          "type": "Clothing Livestock Food Stuff Mixed",
          "local_name": "Wula",
          "days": [
            "Mon"
          ]
        }
      ]
    },
    {
      "name": "Calabar Municipal",
      "slug": "cross-river-calabar-municipal",
      "markets": [
        {
          "name": "Akai Ebiet Complex, Calabar Municipal",
          "slug": "akai-ebiet-complex-calabar-municipal",
          "coordinates": {
            "lat": 4.99201,
            "lng": 8.3424
          },
          "added_by": "GRID3 (racheal.olarewaju)",
          "local_name": "Akai Ebiet Complex"
        },
        {
          "name": "Asim Ita Market, Calabar Municipal",
          "slug": "asim-ita-market-calabar-municipal",
          "coordinates": {
            "lat": 5.00731,
            "lng": 8.33641
          },
          "added_by": "GRID3 (oluwadare.sewedo)",
          "frequency": "Weekly",
          "type": "Clothing Livestock Electronic Spare Parts Food Stuff Mixed",
          "local_name": "Asim Ita",
          "days": [
            "Mon",
            "Tue",
            "Wed",
            "Thu",
            "Fri",
            "Sat"
          ]
        },
        {
          "name": "Calabar Discount City Mall Market, Calabar Municipal",
          "slug": "calabar-discount-city-mall-market-calabar-municipal",
          "coordinates": {
            "lat": 4.972915,
            "lng": 8.339785
          },
          "added_by": "GRID3 (oluwadare.sewedo)",
          "frequency": "Weekly",
          "type": "Clothing Livestock Food Stuff",
          "local_name": "Calabar Discount City Mall",
          "days": [
            "Mon",
            "Tue",
            "Wed",
            "Thu",
            "Fri",
            "Sat"
          ]
        },
        {
          "name": "Esuk Okukuk Beach Market, Calabar Municipal",
          "slug": "esuk-okukuk-beach-market-calabar-municipal",
          "coordinates": {
            "lat": 4.9618367,
            "lng": 8.3143017
          },
          "added_by": "GRID3 (oluwadare.sewedo)",
          "frequency": "Weekly",
          "type": "Mixed",
          "local_name": "Esuk Okukuk Beach",
          "days": [
            "Mon",
            "Wed",
            "Thu",
            "Fri",
            "Sat",
            "Sun"
          ]
        },
        {
          "name": "Esuk Utan Market And Slaughter, Calabar Municipal",
          "slug": "esuk-utan-market-and-slaughter-calabar-municipal",
          "coordinates": {
            "lat": 5.01047,
            "lng": 8.32385
          },
          "added_by": "GRID3 (racheal.olarewaju)",
          "local_name": "Esuk Utan And Slaughter"
        },
        {
          "name": "Ika Ika Qua Market, Calabar Municipal",
          "slug": "ika-ika-qua-market-calabar-municipal",
          "coordinates": {
            "lat": 4.9768417,
            "lng": 8.3384767
          },
          "added_by": "GRID3 (oluwadare.sewedo)",
          "frequency": "Weekly",
          "type": "Food Stuff",
          "local_name": "Ika Ika Qua",
          "days": [
            "Mon",
            "Tue",
            "Wed",
            "Thu",
            "Fri",
            "Sat"
          ]
        },
        {
          "name": "Ikot Ishie Market, Calabar Municipal",
          "slug": "ikot-ishie-market-calabar-municipal",
          "coordinates": {
            "lat": 4.997645,
            "lng": 8.338395
          },
          "added_by": "GRID3 (oluwadare.sewedo)",
          "frequency": "Weekly",
          "type": "Mixed",
          "local_name": "Ikot Ishie",
          "days": [
            "Mon",
            "Tue",
            "Wed",
            "Thu",
            "Fri",
            "Sat"
          ]
        },
        {
          "name": "Infinity Place, Calabar Municipal",
          "slug": "infinity-place-calabar-municipal",
          "coordinates": {
            "lat": 4.98932,
            "lng": 8.33262
          },
          "added_by": "GRID3 (racheal.olarewaju)",
          "local_name": "Infinity Place"
        },
        {
          "name": "Lagos Market, Calabar Municipal",
          "slug": "lagos-market-calabar-municipal",
          "coordinates": {
            "lat": 4.9559867,
            "lng": 8.3189517
          },
          "added_by": "GRID3 (oluwadare.sewedo)",
          "frequency": "Bi-Weekly",
          "type": "Mixed",
          "local_name": "Lagos",
          "days": [
            "Mon",
            "Wed",
            "Thu",
            "Fri",
            "Sat",
            "Sun"
          ]
        },
        {
          "name": "Mammi Market, Calabar Municipal",
          "slug": "mammi-market-calabar-municipal",
          "coordinates": {
            "lat": 5.02091,
            "lng": 8.34162
          },
          "added_by": "GRID3 (racheal.olarewaju)",
          "local_name": "Mammi"
        },
        {
          "name": "Marian Market, Calabar Municipal",
          "slug": "marian-market-calabar-municipal",
          "coordinates": {
            "lat": 4.97527,
            "lng": 8.3392967
          },
          "added_by": "GRID3 (oluwadare.sewedo)",
          "frequency": "Weekly",
          "type": "Clothing Livestock Electronic Spare Parts Food Stuff Mixed",
          "local_name": "Marian",
          "days": [
            "Mon",
            "Tue",
            "Wed",
            "Thu",
            "Fri",
            "Sat"
          ]
        },
        {
          "name": "Nsidung Beach Market, Calabar Municipal",
          "slug": "nsidung-beach-market-calabar-municipal",
          "coordinates": {
            "lat": 4.9519017,
            "lng": 8.3102233
          },
          "added_by": "GRID3 (oluwadare.sewedo)",
          "frequency": "Weekly",
          "type": "Mixed",
          "local_name": "Nsidung Beach",
          "days": [
            "Mon",
            "Wed",
            "Thu",
            "Fri",
            "Sat",
            "Sun"
          ]
        },
        {
          "name": "Nsidung Market, Calabar Municipal",
          "slug": "nsidung-market-calabar-municipal",
          "coordinates": {
            "lat": 4.9641333,
            "lng": 8.31612
          },
          "added_by": "GRID3 (oluwadare.sewedo)",
          "frequency": "Weekly",
          "type": "Other",
          "local_name": "Nsidung",
          "days": [
            "Mon",
            "Wed",
            "Thu",
            "Fri",
            "Sat",
            "Sun"
          ]
        },
        {
          "name": "Obioko Creek Town Beach Market, Calabar Municipal",
          "slug": "obioko-creek-town-beach-market-calabar-municipal",
          "coordinates": {
            "lat": 4.95739,
            "lng": 8.3114433
          },
          "added_by": "GRID3 (oluwadare.sewedo)",
          "frequency": "Weekly",
          "type": "Mixed",
          "local_name": "Obioko Creek Town Beach",
          "days": [
            "Mon",
            "Wed",
            "Thu",
            "Fri",
            "Sat",
            "Sun"
          ]
        },
        {
          "name": "Suya Market Bogobri, Calabar Municipal",
          "slug": "suya-market-bogobri-calabar-municipal",
          "coordinates": {
            "lat": 4.959401667,
            "lng": 8.329043333
          },
          "added_by": "GRID3 (oluwadare.sewedo)",
          "frequency": "Weekly",
          "type": "Food Stuff Mixed",
          "local_name": "Suya Bogobri",
          "days": [
            "Mon",
            "Wed",
            "Thu",
            "Fri",
            "Sat",
            "Sun"
          ]
        },
        {
          "name": "Watt Market, Calabar Municipal",
          "slug": "watt-market-calabar-municipal",
          "coordinates": {
            "lat": 4.9577243,
            "lng": 8.3205137
          },
          "added_by": "GRID3 (oluwadare.sewedo)",
          "frequency": "Weekly",
          "type": "Clothing Livestock Food Stuff Other",
          "local_name": "Watt",
          "days": [
            "Mon",
            "Wed",
            "Thu",
            "Fri",
            "Sat",
            "Sun"
          ]
        }
      ]
    },
    {
      "name": "Calabar South",
      "slug": "cross-river-calabar-south",
      "markets": [
        {
          "name": "Abasi Obori Market, Calabar South",
          "slug": "abasi-obori-market-calabar-south",
          "coordinates": {
            "lat": 4.94546,
            "lng": 8.3330483
          },
          "added_by": "GRID3 (oluwadare.sewedo)",
          "frequency": "Bi-Weekly",
          "type": "Mixed",
          "local_name": "Abasi Obori",
          "days": [
            "Mon",
            "Wed",
            "Thu",
            "Fri",
            "Sat",
            "Sun"
          ]
        },
        {
          "name": "Akim Market, Calabar South",
          "slug": "akim-market-calabar-south",
          "coordinates": {
            "lat": 4.9618019,
            "lng": 8.3398918
          },
          "added_by": "GRID3 (oluwadare.sewedo)",
          "frequency": "Weekly",
          "type": "Food Stuff",
          "local_name": "Akim",
          "days": [
            "Mon",
            "Tue",
            "Wed",
            "Thu",
            "Fri",
            "Sat"
          ]
        },
        {
          "name": "Ata Nsiyak Beach Market, Calabar South",
          "slug": "ata-nsiyak-beach-market-calabar-south",
          "coordinates": {
            "lat": 4.95048,
            "lng": 8.30854
          },
          "added_by": "GRID3 (oluwadare.sewedo)",
          "frequency": "Weekly",
          "type": "Mixed",
          "local_name": "Ata Nsiyak Beach",
          "days": [
            "Mon",
            "Wed",
            "Thu",
            "Fri",
            "Sat",
            "Sun"
          ]
        },
        {
          "name": "Bush Meat And Palm Wine Market, Calabar South",
          "slug": "bush-meat-and-palm-wine-market-calabar-south",
          "coordinates": {
            "lat": 4.9661758,
            "lng": 8.3728014
          },
          "added_by": "GRID3 (oluwadare.sewedo)",
          "frequency": "Weekly",
          "type": "Clothing Livestock Food Stuff",
          "local_name": "Bush Meat And Palm Wine",
          "days": [
            "Mon",
            "Wed",
            "Thu",
            "Fri",
            "Sat",
            "Sun"
          ]
        },
        {
          "name": "Crutech Market, Calabar South",
          "slug": "crutech-market-calabar-south",
          "coordinates": {
            "lat": 4.9299167,
            "lng": 8.3288983
          },
          "added_by": "GRID3 (oluwadare.sewedo)",
          "frequency": "Weekly",
          "type": "Clothing Livestock Electronic Spare Parts Food Stuff Mixed",
          "local_name": "Crutech",
          "days": [
            "Mon",
            "Wed",
            "Thu",
            "Fri",
            "Sat",
            "Sun"
          ]
        },
        {
          "name": "Edim Otop Market, Calabar South",
          "slug": "edim-otop-market-calabar-south",
          "coordinates": {
            "lat": 4.967723333,
            "lng": 8.356531667
          },
          "added_by": "GRID3 (oluwadare.sewedo)",
          "frequency": "Weekly",
          "type": "Mixed",
          "local_name": "Edim Otop",
          "days": [
            "Mon",
            "Wed",
            "Thu",
            "Fri",
            "Sat",
            "Sun"
          ]
        },
        {
          "name": "Esiere Ebom Baech Market, Calabar South",
          "slug": "esiere-ebom-baech-market-calabar-south",
          "coordinates": {
            "lat": 4.94121,
            "lng": 8.30914
          },
          "added_by": "GRID3 (racheal.olarewaju)",
          "local_name": "Esiere Ebom Baech"
        },
        {
          "name": "Esuk Anantigha Market, Calabar South",
          "slug": "esuk-anantigha-market-calabar-south",
          "coordinates": {
            "lat": 4.9157967,
            "lng": 8.3220983
          },
          "added_by": "GRID3 (oluwadare.sewedo)",
          "frequency": "Weekly",
          "type": "Food Stuff Mixed",
          "local_name": "Esuk Anantigha",
          "days": [
            "Tue",
            "Wed",
            "Thu"
          ]
        },
        {
          "name": "Goldie Market, Calabar South",
          "slug": "goldie-market-calabar-south",
          "coordinates": {
            "lat": 4.9459276,
            "lng": 8.3433246
          },
          "added_by": "GRID3 (oluwadare.sewedo)",
          "frequency": "Weekly",
          "type": "Mixed",
          "local_name": "Goldie",
          "days": [
            "Mon",
            "Wed",
            "Thu",
            "Fri",
            "Sat",
            "Sun"
          ]
        },
        {
          "name": "Hart Market, Calabar South",
          "slug": "hart-market-calabar-south",
          "coordinates": {
            "lat": 4.9454083,
            "lng": 8.3230867
          },
          "added_by": "GRID3 (oluwadare.sewedo)",
          "frequency": "Weekly",
          "type": "Food Stuff",
          "local_name": "Hart",
          "days": [
            "Mon",
            "Wed",
            "Thu",
            "Fri",
            "Sat",
            "Sun"
          ]
        },
        {
          "name": "Ibesikpo Market, Calabar South",
          "slug": "ibesikpo-market-calabar-south",
          "coordinates": {
            "lat": 4.9299083,
            "lng": 8.3111367
          },
          "added_by": "GRID3 (oluwadare.sewedo)",
          "frequency": "Weekly",
          "type": "Clothing Livestock Electronic Spare Parts Food Stuff Mixed",
          "local_name": "Ibesikpo",
          "days": [
            "Tue",
            "Wed",
            "Thu",
            "Fri",
            "Sat"
          ]
        },
        {
          "name": "Ibesikpo Timber Market, Calabar South",
          "slug": "ibesikpo-timber-market-calabar-south",
          "coordinates": {
            "lat": 4.93675,
            "lng": 8.309925
          },
          "added_by": "GRID3 (racheal.olarewaju)",
          "local_name": "Ibesikpo Timber"
        },
        {
          "name": "Mami Market, Calabar South",
          "slug": "mami-market-calabar-south",
          "coordinates": {
            "lat": 4.9618165,
            "lng": 8.3367789
          },
          "added_by": "GRID3 (oluwadare.sewedo)",
          "frequency": "Weekly",
          "type": "Clothing Livestock Food Stuff Mixed",
          "local_name": "Mami",
          "days": [
            "Mon",
            "Tue",
            "Wed",
            "Thu",
            "Fri",
            "Sat"
          ]
        },
        {
          "name": "Mbukpa Market, Calabar South",
          "slug": "mbukpa-market-calabar-south",
          "coordinates": {
            "lat": 4.9377017,
            "lng": 8.31685
          },
          "added_by": "GRID3 (oluwadare.sewedo)",
          "frequency": "Weekly",
          "type": "Clothing Livestock Food Stuff Mixed",
          "local_name": "Mbukpa",
          "days": [
            "Mon",
            "Wed",
            "Thu",
            "Fri",
            "Sat",
            "Sun"
          ]
        },
        {
          "name": "Otokangha Market, Calabar South",
          "slug": "otokangha-market-calabar-south",
          "coordinates": {
            "lat": 4.92885,
            "lng": 8.31675
          },
          "added_by": "GRID3 (racheal.olarewaju)",
          "local_name": "Otokangha"
        },
        {
          "name": "Otongkagha Efiowan Market, Calabar South",
          "slug": "otongkagha-efiowan-market-calabar-south",
          "coordinates": {
            "lat": 4.9276283,
            "lng": 8.3247567
          },
          "added_by": "GRID3 (oluwadare.sewedo)",
          "frequency": "Other",
          "type": "Clothing Livestock Food Stuff Mixed",
          "local_name": "Otongkagha Efiowan",
          "days": [
            "Mon",
            "Wed",
            "Thu",
            "Fri",
            "Sat",
            "Sun"
          ]
        },
        {
          "name": "Uwanse Market, Calabar South",
          "slug": "uwanse-market-calabar-south",
          "coordinates": {
            "lat": 4.9409983,
            "lng": 8.338045
          },
          "added_by": "GRID3 (oluwadare.sewedo)",
          "frequency": "Bi-Weekly",
          "type": "Mixed",
          "local_name": "Uwanse",
          "days": [
            "Mon",
            "Wed",
            "Thu",
            "Fri",
            "Sat",
            "Sun"
          ]
        }
      ]
    },
    {
      "name": "Etung",
      "slug": "cross-river-etung",
      "markets": [
        {
          "name": "Agbokim Market, Etung",
          "slug": "agbokim-market-etung",
          "coordinates": {
            "lat": 5.90693,
            "lng": 8.908093333
          },
          "added_by": "GRID3 (oluwadare.sewedo)",
          "frequency": "Other",
          "type": "Clothing Livestock Food Stuff Mixed",
          "local_name": "Agbokim",
          "days": [
            "Tue",
            "Sat"
          ]
        },
        {
          "name": "Ekugatai Market, Etung",
          "slug": "ekugatai-market-etung",
          "coordinates": {
            "lat": 5.878506667,
            "lng": 8.88128
          },
          "added_by": "GRID3 (oluwadare.sewedo)",
          "frequency": "Weekly",
          "type": "Clothing Livestock Electronic Spare Parts Food Stuff Mixed",
          "local_name": "Ekugatai",
          "days": [
            "Tue"
          ]
        },
        {
          "name": "Etomi Community Market, Etung",
          "slug": "etomi-community-market-etung",
          "coordinates": {
            "lat": 5.936128333,
            "lng": 8.821726667
          },
          "added_by": "GRID3 (oluwadare.sewedo)",
          "frequency": "Weekly",
          "type": "Food Stuff",
          "local_name": "Etomi Community",
          "days": [
            "Wed"
          ]
        },
        {
          "name": "International Market Ajassor, Etung",
          "slug": "international-market-ajassor-etung",
          "coordinates": {
            "lat": 5.833871667,
            "lng": 8.83555
          },
          "added_by": "GRID3 (oluwadare.sewedo)",
          "frequency": "Weekly",
          "type": "Clothing Livestock Electronic Spare Parts Food Stuff Mixed",
          "local_name": "International Ajassor",
          "days": [
            "Tue",
            "Thu"
          ]
        },
        {
          "name": "Last Motto Market, Etung",
          "slug": "last-motto-market-etung",
          "coordinates": {
            "lat": 5.915973333,
            "lng": 8.769598333
          },
          "added_by": "GRID3 (oluwadare.sewedo)",
          "frequency": "Weekly",
          "type": "Food Stuff",
          "local_name": "Last Motto",
          "days": [
            "Mon",
            "Fri"
          ]
        },
        {
          "name": "Mpantor Market, Etung",
          "slug": "mpantor-market-etung",
          "coordinates": {
            "lat": 6.028795,
            "lng": 8.870261667
          },
          "added_by": "GRID3 (oluwadare.sewedo)",
          "frequency": "Weekly",
          "type": "Mixed",
          "local_name": "Mpantor",
          "days": [
            "Mon",
            "Fri"
          ]
        },
        {
          "name": "Ogum Market, Etung",
          "slug": "ogum-market-etung",
          "coordinates": {
            "lat": 5.942078333,
            "lng": 8.90904
          },
          "added_by": "GRID3 (oluwadare.sewedo)",
          "frequency": "Weekly",
          "type": "Food Stuff",
          "local_name": "Ogum",
          "days": [
            "Tue",
            "Thu"
          ]
        },
        {
          "name": "Okim Nsofang Market, Etung",
          "slug": "okim-nsofang-market-etung",
          "coordinates": {
            "lat": 5.807823333,
            "lng": 8.706155
          },
          "added_by": "GRID3 (oluwadare.sewedo)",
          "frequency": "Weekly",
          "type": "Food Stuff",
          "local_name": "Okim Nsofang",
          "days": [
            "Mon",
            "Fri"
          ]
        },
        {
          "name": "Old Market, Etung",
          "slug": "old-market-etung",
          "coordinates": {
            "lat": 6.017115,
            "lng": 8.873331667
          },
          "added_by": "GRID3 (oluwadare.sewedo)",
          "frequency": "Weekly",
          "type": "Mixed",
          "local_name": "Old",
          "days": [
            "Mon",
            "Wed",
            "Thu",
            "Fri",
            "Sat",
            "Sun"
          ]
        },
        {
          "name": "Titor Ekiem Market, Etung",
          "slug": "titor-ekiem-market-etung",
          "coordinates": {
            "lat": 6.009122297,
            "lng": 8.872855954
          },
          "added_by": "GRID3 (adanna.alex)",
          "type": "Food Stuff",
          "local_name": "Titor Ekiem"
        }
      ]
    },
    {
      "name": "Ikom",
      "slug": "cross-river-ikom",
      "markets": [
        {
          "name": "Abinti Market, Ikom",
          "slug": "abinti-market-ikom",
          "coordinates": {
            "lat": 6.239315,
            "lng": 8.649363333
          },
          "added_by": "GRID3 (oluwadare.sewedo)",
          "frequency": "Weekly",
          "type": "Food Stuff Mixed",
          "local_name": "Abinti",
          "days": [
            "Tue",
            "Thu",
            "Fri"
          ]
        },
        {
          "name": "Adijingkpor Market, Ikom",
          "slug": "adijingkpor-market-ikom",
          "coordinates": {
            "lat": 5.9984209,
            "lng": 8.7443268
          },
          "added_by": "GRID3 (oluwadare.sewedo)",
          "frequency": "Weekly",
          "type": "Mixed",
          "local_name": "Adijingkpor",
          "days": [
            "Wed"
          ]
        },
        {
          "name": "Agrotracts Cocoa Delarsmarket Obudu Ikom",
          "slug": "agrotracts-cocoa-delarsmarket-obudu-ikom",
          "coordinates": {
            "lat": 5.980318333,
            "lng": 8.73309
          },
          "added_by": "GRID3 (oluwadare.sewedo)",
          "frequency": "Other",
          "type": "Clothing Food Stuff Mixed",
          "local_name": "Agrotracts Cocoa Delars Obudu Ikom"
        },
        {
          "name": "Akam Market, Ikom",
          "slug": "akam-market-ikom",
          "coordinates": {
            "lat": 5.9460679,
            "lng": 8.6279054
          },
          "added_by": "GRID3 (oluwadare.sewedo)",
          "frequency": "Weekly",
          "type": "Mixed",
          "local_name": "Akam",
          "days": [
            "Tue",
            "Thu"
          ]
        },
        {
          "name": "Akpanna Market Omindom Ikom",
          "slug": "akpanna-market-omindom-ikom",
          "coordinates": {
            "lat": 5.939973333,
            "lng": 8.566641667
          },
          "added_by": "GRID3 (oluwadare.sewedo)",
          "frequency": "Bi-Weekly",
          "type": "Mixed",
          "local_name": "Akpanna Omindom Ikom",
          "days": [
            "Mon",
            "Tue",
            "Wed",
            "Thu",
            "Fri",
            "Sat"
          ]
        },
        {
          "name": "Akparabong Market, Ikom",
          "slug": "akparabong-market-ikom",
          "coordinates": {
            "lat": 6.033598333,
            "lng": 8.750221667
          },
          "added_by": "GRID3 (oluwadare.sewedo)",
          "frequency": "Weekly",
          "type": "Clothing Livestock Food Stuff",
          "local_name": "Akparabong",
          "days": [
            "Tue",
            "Fri",
            "Sat"
          ]
        },
        {
          "name": "Akpu Market, Ikom",
          "slug": "akpu-market-ikom",
          "coordinates": {
            "lat": 6.1179101,
            "lng": 8.6574031
          },
          "added_by": "GRID3 (oluwadare.sewedo)",
          "frequency": "Other",
          "type": "Other",
          "local_name": "Akpu",
          "days": [
            "Tue"
          ]
        },
        {
          "name": "Alesi Community Market, Ikom",
          "slug": "alesi-community-market-ikom",
          "coordinates": {
            "lat": 5.946183333,
            "lng": 8.508936667
          },
          "added_by": "GRID3 (oluwadare.sewedo)",
          "frequency": "Weekly",
          "type": "Clothing Livestock Food Stuff",
          "local_name": "Alesi Community",
          "days": [
            "Tue"
          ]
        },
        {
          "name": "Alok Market, Ikom",
          "slug": "alok-market-ikom",
          "coordinates": {
            "lat": 6.316986667,
            "lng": 8.649526667
          },
          "added_by": "GRID3 (oluwadare.sewedo)",
          "frequency": "Weekly",
          "type": "Clothing Food Stuff",
          "local_name": "Alok",
          "days": [
            "Mon",
            "Tue",
            "Fri"
          ]
        },
        {
          "name": "Atimaka Community Market, Ikom",
          "slug": "atimaka-community-market-ikom",
          "coordinates": {
            "lat": 6.005886667,
            "lng": 8.71659
          },
          "added_by": "GRID3 (oluwadare.sewedo)",
          "frequency": "Weekly",
          "type": "Mixed",
          "local_name": "Atimaka Community",
          "days": [
            "Mon",
            "Wed",
            "Thu",
            "Fri",
            "Sat",
            "Sun"
          ]
        },
        {
          "name": "Ayughasa Market, Ikom",
          "slug": "ayughasa-market-ikom",
          "coordinates": {
            "lat": 6.155331667,
            "lng": 8.612518333
          },
          "added_by": "GRID3 (tosin.williams)",
          "frequency": "Weekly",
          "type": "Mixed",
          "local_name": "Ayughasa",
          "days": [
            "Tue"
          ]
        },
        {
          "name": "Balep Market, Ikom",
          "slug": "balep-market-ikom",
          "coordinates": {
            "lat": 6.1200107,
            "lng": 8.7039482
          },
          "added_by": "GRID3 (oluwadare.sewedo)",
          "frequency": "Weekly",
          "type": "Clothing Electronic Spare Parts Food Stuff",
          "local_name": "Balep",
          "days": [
            "Tue",
            "Sun"
          ]
        },
        {
          "name": "Banana Market, Ikom",
          "slug": "banana-market-ikom",
          "coordinates": {
            "lat": 6.125278333,
            "lng": 8.679733333
          },
          "added_by": "GRID3 (oluwadare.sewedo)",
          "frequency": "Weekly",
          "type": "Clothing Livestock Electronic Spare Parts Food Stuff Mixed",
          "local_name": "Banana",
          "days": [
            "Mon",
            "Tue",
            "Wed"
          ]
        },
        {
          "name": "Edor Market, Ikom",
          "slug": "edor-market-ikom",
          "coordinates": {
            "lat": 6.2010963,
            "lng": 8.6327517
          },
          "added_by": "GRID3 (oluwadare.sewedo)",
          "frequency": "Weekly",
          "type": "Clothing Livestock Electronic Spare Parts Food Stuff Mixed",
          "local_name": "Edor",
          "days": [
            "Wed"
          ]
        },
        {
          "name": "Ekonde Daily Market, Ikom",
          "slug": "ekonde-daily-market-ikom",
          "coordinates": {
            "lat": 6.195873333,
            "lng": 8.631193333
          },
          "added_by": "GRID3 (tosin.williams)",
          "frequency": "Weekly",
          "type": "Food Stuff",
          "local_name": "Ekonde Daily",
          "days": [
            "Mon",
            "Wed",
            "Thu",
            "Fri",
            "Sat",
            "Sun"
          ]
        },
        {
          "name": "Ekuekunela Market, Ikom",
          "slug": "ekuekunela-market-ikom",
          "coordinates": {
            "lat": 5.94984,
            "lng": 8.538821667
          },
          "added_by": "GRID3 (oluwadare.sewedo)",
          "frequency": "Weekly",
          "type": "Clothing Livestock Food Stuff",
          "local_name": "Ekuekunela",
          "days": [
            "Sun"
          ]
        },
        {
          "name": "Etakor Community Market, Ikom",
          "slug": "etakor-community-market-ikom",
          "coordinates": {
            "lat": 6.048215,
            "lng": 8.57637
          },
          "added_by": "GRID3 (oluwadare.sewedo)",
          "frequency": "Weekly",
          "type": "Mixed",
          "local_name": "Etakor Community",
          "days": [
            "Wed"
          ]
        },
        {
          "name": "Iyama Market, Ikom",
          "slug": "iyama-market-ikom",
          "coordinates": {
            "lat": 5.941763333,
            "lng": 8.64046
          },
          "added_by": "GRID3 (oluwadare.sewedo)",
          "frequency": "Weekly",
          "type": "Livestock Food Stuff",
          "local_name": "Iyama",
          "days": [
            "Tue",
            "Fri",
            "Sat"
          ]
        },
        {
          "name": "Market Okangha, Ikom",
          "slug": "market-okangha-ikom",
          "coordinates": {
            "lat": 5.941868333,
            "lng": 8.635871667
          },
          "added_by": "GRID3 (oluwadare.sewedo)",
          "frequency": "Other",
          "type": "Mixed",
          "local_name": "Okangha",
          "days": [
            "Mon",
            "Wed",
            "Thu",
            "Fri",
            "Sat",
            "Sun"
          ]
        },
        {
          "name": "Nbianang Yala Market, Ikom",
          "slug": "nbianang-yala-market-ikom",
          "coordinates": {
            "lat": 5.998341667,
            "lng": 8.638375
          },
          "added_by": "GRID3 (oluwadare.sewedo)",
          "frequency": "Weekly",
          "type": "Clothing Livestock Food Stuff",
          "local_name": "Nbianang Yala",
          "days": [
            "Wed"
          ]
        },
        {
          "name": "Nconfam Main Market, Ikom",
          "slug": "nconfam-main-market-ikom",
          "coordinates": {
            "lat": 6.362165,
            "lng": 8.676706667
          },
          "added_by": "GRID3 (oluwadare.sewedo)",
          "frequency": "Weekly",
          "type": "Mixed",
          "local_name": "Nconfam Main",
          "days": [
            "Tue",
            "Thu",
            "Fri"
          ]
        },
        {
          "name": "Nde Market 3 Corner, Ikom",
          "slug": "nde-market-3-corner-ikom",
          "coordinates": {
            "lat": 6.047360219,
            "lng": 8.685564041
          },
          "added_by": "GRID3 (adanna.alex)",
          "frequency": "Daily",
          "type": "Food Stuff",
          "local_name": "Nde 3 Corner",
          "days": [
            "Mon",
            "Tue",
            "Wed",
            "Thu",
            "Fri",
            "Sat",
            "Sun"
          ]
        },
        {
          "name": "Ngo Market, Ikom",
          "slug": "ngo-market-ikom",
          "coordinates": {
            "lat": 6.1723275,
            "lng": 8.4753195
          },
          "added_by": "GRID3 (oluwadare.sewedo)",
          "frequency": "Weekly",
          "type": "Clothing Livestock Electronic Spare Parts Food Stuff",
          "local_name": "Ngo",
          "days": [
            "Mon",
            "Tue",
            "Fri"
          ]
        },
        {
          "name": "Njimetop Market Square, Ikom",
          "slug": "njimetop-market-square-ikom",
          "coordinates": {
            "lat": 6.207416667,
            "lng": 8.527228333
          },
          "added_by": "GRID3 (oluwadare.sewedo)",
          "frequency": "Weekly",
          "type": "Mixed",
          "local_name": "Njimetop Square",
          "days": [
            "Wed"
          ]
        },
        {
          "name": "Nkarasi Community Market, Ikom",
          "slug": "nkarasi-community-market-ikom",
          "coordinates": {
            "lat": 6.281998333,
            "lng": 8.654888333
          },
          "added_by": "GRID3 (oluwadare.sewedo)",
          "frequency": "Weekly",
          "type": "Clothing Livestock Food Stuff",
          "local_name": "Nkarasi Community",
          "days": [
            "Mon",
            "Tue",
            "Fri"
          ]
        },
        {
          "name": "Nkonfab Market, Ikom",
          "slug": "nkonfab-market-ikom",
          "coordinates": {
            "lat": 6.3622082,
            "lng": 8.6756587
          },
          "added_by": "GRID3 (oluwadare.sewedo)",
          "frequency": "Weekly",
          "type": "Clothing Livestock Food Stuff",
          "local_name": "Nkonfab",
          "days": [
            "Mon"
          ]
        },
        {
          "name": "Nkum Community Market Village Ikom",
          "slug": "nkum-community-market-village-ikom",
          "coordinates": {
            "lat": 6.246198333,
            "lng": 8.653953333
          },
          "added_by": "GRID3 (tosin.williams)",
          "frequency": "Weekly",
          "type": "Clothing Livestock Food Stuff Mixed",
          "local_name": "Nkum Community Village Ikom",
          "days": [
            "Tue",
            "Thu",
            "Fri"
          ]
        },
        {
          "name": "Nkum Market, Ikom",
          "slug": "nkum-market-ikom",
          "coordinates": {
            "lat": 6.2542059,
            "lng": 8.6573899
          },
          "added_by": "GRID3 (oluwadare.sewedo)",
          "frequency": "Weekly",
          "type": "Clothing Food Stuff",
          "local_name": "Nkum",
          "days": [
            "Mon",
            "Tue",
            "Fri"
          ]
        },
        {
          "name": "Okimsama Cocoa Market Etomi, Ikom",
          "slug": "okimsama-cocoa-market-etomi-ikom",
          "coordinates": {
            "lat": 5.960685,
            "lng": 8.738586667
          },
          "added_by": "GRID3 (oluwadare.sewedo)",
          "frequency": "Weekly",
          "type": "Livestock",
          "local_name": "Okimsama Cocoa Etomi"
        },
        {
          "name": "Okosora Market, Ikom",
          "slug": "okosora-market-ikom",
          "coordinates": {
            "lat": 6.0385967,
            "lng": 8.5331318
          },
          "added_by": "GRID3 (tosin.williams)",
          "frequency": "Other",
          "type": "Other",
          "local_name": "Okosora",
          "days": [
            "Tue",
            "Fri",
            "Sat"
          ]
        },
        {
          "name": "Okosora Palm Wine Market, Ikom",
          "slug": "okosora-palm-wine-market-ikom",
          "coordinates": {
            "lat": 6.022283333,
            "lng": 8.518308333
          },
          "added_by": "GRID3 (oluwadare.sewedo)",
          "frequency": "Weekly",
          "type": "Mixed",
          "local_name": "Okosora Palm Wine",
          "days": [
            "Mon",
            "Wed",
            "Thu",
            "Fri",
            "Sat",
            "Sun"
          ]
        },
        {
          "name": "Okpanga Mkpansi, Ikom",
          "slug": "okpanga-mkpansi-ikom",
          "coordinates": {
            "lat": 5.946928333,
            "lng": 8.620061667
          },
          "added_by": "GRID3 (oluwadare.sewedo)",
          "frequency": "Weekly",
          "type": "Mixed",
          "local_name": "Okpanga Mkpansi",
          "days": [
            "Mon",
            "Fri"
          ]
        },
        {
          "name": "Otere Market, Ikom",
          "slug": "otere-market-ikom",
          "coordinates": {
            "lat": 5.9852874,
            "lng": 8.7344316
          },
          "added_by": "GRID3 (oluwadare.sewedo)",
          "frequency": "Weekly",
          "type": "Mixed",
          "local_name": "Otere",
          "days": [
            "Mon"
          ]
        },
        {
          "name": "Oyenghe Market, Ikom",
          "slug": "oyenghe-market-ikom",
          "coordinates": {
            "lat": 6.05552,
            "lng": 8.51923
          },
          "added_by": "GRID3 (tosin.williams)",
          "frequency": "Weekly",
          "type": "Food Stuff",
          "local_name": "Oyenghe",
          "days": [
            "Tue",
            "Thu"
          ]
        },
        {
          "name": "Timber Market Nkim Village, Ikom",
          "slug": "timber-market-nkim-village-ikom",
          "coordinates": {
            "lat": 6.250685,
            "lng": 8.654741667
          },
          "added_by": "GRID3 (tosin.williams)",
          "frequency": "Weekly",
          "type": "Mixed",
          "local_name": "Timber Nkim Village",
          "days": [
            "Mon",
            "Tue",
            "Wed",
            "Thu",
            "Fri",
            "Sat"
          ]
        }
      ]
    },
    {
      "name": "Obanliku",
      "slug": "cross-river-obanliku",
      "markets": [
        {
          "name": "Akorshi Market, Obanliku",
          "slug": "akorshi-market-obanliku",
          "coordinates": {
            "lat": 6.5532967,
            "lng": 9.18773
          },
          "added_by": "GRID3 (oluwadare.sewedo)",
          "frequency": "Weekly",
          "type": "Clothing Livestock Food Stuff",
          "local_name": "Akorshi",
          "days": [
            "Wed"
          ]
        },
        {
          "name": "Amana Market, Obanliku",
          "slug": "amana-market-obanliku",
          "coordinates": {
            "lat": 6.4750067,
            "lng": 9.4482317
          },
          "added_by": "GRID3 (oluwadare.sewedo)",
          "frequency": "Weekly",
          "type": "Mixed",
          "local_name": "Amana",
          "days": [
            "Mon",
            "Wed",
            "Thu",
            "Fri",
            "Sat",
            "Sun"
          ]
        },
        {
          "name": "Bayalele Market, Obanliku",
          "slug": "bayalele-market-obanliku",
          "coordinates": {
            "lat": 6.5500433,
            "lng": 9.2226117
          },
          "added_by": "GRID3 (oluwadare.sewedo)",
          "frequency": "Weekly",
          "type": "Clothing Food Stuff Mixed",
          "local_name": "Bayalele",
          "days": [
            "Mon",
            "Fri"
          ]
        },
        {
          "name": "Bayuloga Market, Obanliku",
          "slug": "bayuloga-market-obanliku",
          "coordinates": {
            "lat": 6.6169774,
            "lng": 9.3021999
          },
          "added_by": "GRID3 (oluwadare.sewedo)",
          "frequency": "Weekly",
          "type": "Mixed",
          "local_name": "Bayuloga",
          "days": [
            "Mon",
            "Fri"
          ]
        },
        {
          "name": "Beti Market Bagga 1, Obanliku",
          "slug": "beti-market-bagga-1-obanliku",
          "coordinates": {
            "lat": 6.5201539,
            "lng": 9.4155259
          },
          "added_by": "GRID3 (oluwadare.sewedo)",
          "frequency": "Weekly",
          "type": "Mixed",
          "local_name": "Beti Bagga 1",
          "days": [
            "Mon",
            "Wed",
            "Thu",
            "Fri",
            "Sat",
            "Sun"
          ]
        },
        {
          "name": "Bishiri Market, Obanliku",
          "slug": "bishiri-market-obanliku",
          "coordinates": {
            "lat": 6.6750017,
            "lng": 9.201365
          },
          "added_by": "GRID3 (oluwadare.sewedo)",
          "frequency": "Bi-Weekly",
          "type": "Mixed",
          "local_name": "Bishiri",
          "days": [
            "Mon",
            "Fri"
          ]
        },
        {
          "name": "Branch Market, Obanliku",
          "slug": "branch-market-obanliku",
          "coordinates": {
            "lat": 6.61673,
            "lng": 9.3707683
          },
          "added_by": "GRID3 (oluwadare.sewedo)",
          "frequency": "Weekly",
          "type": "Mixed",
          "local_name": "Branch",
          "days": [
            "Mon"
          ]
        },
        {
          "name": "Ikpagajir Market, Obanliku",
          "slug": "ikpagajir-market-obanliku",
          "coordinates": {
            "lat": 6.59166,
            "lng": 9.3933517
          },
          "added_by": "GRID3 (oluwadare.sewedo)",
          "frequency": "Weekly",
          "type": "Food Stuff",
          "local_name": "Ikpagajir",
          "days": [
            "Mon"
          ]
        },
        {
          "name": "Kiggol Market, Obanliku",
          "slug": "kiggol-market-obanliku",
          "coordinates": {
            "lat": 6.360723333,
            "lng": 9.37917
          },
          "added_by": "GRID3 (oluwadare.sewedo)",
          "frequency": "Weekly",
          "type": "Mixed",
          "local_name": "Kiggol",
          "days": [
            "Mon"
          ]
        },
        {
          "name": "Sankwala Market, Obanliku",
          "slug": "sankwala-market-obanliku",
          "coordinates": {
            "lat": 6.6077767,
            "lng": 9.2517483
          },
          "added_by": "GRID3 (tosin.williams)",
          "frequency": "Weekly",
          "type": "Mixed",
          "local_name": "Sankwala",
          "days": [
            "Mon",
            "Fri"
          ]
        },
        {
          "name": "Stone Market Kundeve, Obanliku",
          "slug": "stone-market-kundeve-obanliku",
          "coordinates": {
            "lat": 6.5530417,
            "lng": 9.39231
          },
          "added_by": "GRID3 (oluwadare.sewedo)",
          "frequency": "Weekly",
          "type": "Mixed",
          "local_name": "Stone Kundeve",
          "days": [
            "Wed"
          ]
        },
        {
          "name": "Tabu Market, Obanliku",
          "slug": "tabu-market-obanliku",
          "coordinates": {
            "lat": 6.6875,
            "lng": 9.24827
          },
          "added_by": "GRID3 (oluwadare.sewedo)",
          "frequency": "Weekly",
          "type": "Mixed",
          "local_name": "Tabu",
          "days": [
            "Tue",
            "Fri",
            "Sat"
          ]
        }
      ]
    },
    {
      "name": "Obubra",
      "slug": "cross-river-obubra",
      "markets": [
        {
          "name": "6 Corner Market Ababene, Obubra",
          "slug": "6-corner-market-ababene-obubra",
          "coordinates": {
            "lat": 5.950251667,
            "lng": 8.261836667
          },
          "added_by": "GRID3 (oluwadare.sewedo)",
          "frequency": "Weekly",
          "type": "Mixed",
          "local_name": "Ababene",
          "days": [
            "Tue"
          ]
        },
        {
          "name": "Ababene Market, Obubra",
          "slug": "ababene-market-obubra",
          "coordinates": {
            "lat": 5.95361,
            "lng": 8.259606667
          },
          "added_by": "GRID3 (oluwadare.sewedo)",
          "frequency": "Other",
          "type": "Food Stuff Other",
          "local_name": "Ababene",
          "days": [
            "Tue",
            "Fri",
            "Sat"
          ]
        },
        {
          "name": "Adokos Cocoa Market, Obubra",
          "slug": "adokos-cocoa-market-obubra",
          "coordinates": {
            "lat": 5.931115,
            "lng": 8.426748333
          },
          "added_by": "GRID3 (oluwadare.sewedo)",
          "frequency": "Bi-Weekly",
          "type": "Mixed",
          "local_name": "Adokos Cocoa",
          "days": [
            "Mon",
            "Wed",
            "Thu",
            "Fri",
            "Sat",
            "Sun"
          ]
        },
        {
          "name": "Ahana Market, Obubra",
          "slug": "ahana-market-obubra",
          "coordinates": {
            "lat": 6.056108333,
            "lng": 8.343215
          },
          "added_by": "GRID3 (oluwadare.sewedo)",
          "frequency": "Weekly",
          "type": "Mixed",
          "local_name": "Ahana",
          "days": [
            "Mon"
          ]
        },
        {
          "name": "Apiapum Daily Market, Obubra",
          "slug": "apiapum-daily-market-obubra",
          "coordinates": {
            "lat": 5.997038333,
            "lng": 8.278833333
          },
          "added_by": "GRID3 (oluwadare.sewedo)",
          "frequency": "Other",
          "type": "Mixed",
          "local_name": "Apiapum Daily",
          "days": [
            "Tue",
            "Fri",
            "Sat"
          ]
        },
        {
          "name": "Apiapum Market, Obubra",
          "slug": "apiapum-market-obubra",
          "coordinates": {
            "lat": 5.99636,
            "lng": 8.280088333
          },
          "added_by": "GRID3 (oluwadare.sewedo)",
          "frequency": "Weekly",
          "type": "Clothing Livestock Food Stuff",
          "local_name": "Apiapum",
          "days": [
            "Tue",
            "Fri",
            "Sat"
          ]
        },