{
  "name": "Ebonyi",
  "slug": "ebonyi",
  "lgas": [
    {
      "name": "Abakaliki",
      "slug": "ebonyi-abakaliki",
      "markets": [
        {
          "name": "Abacha Market, Abakaliki",
          "slug": "abacha-market-abakaliki",
          "coordinates": {
            "lat": 6.323063333,
            "lng": 8.113031667
          },
          "added_by": "GRID3 (racheal.olarewaju)",
          "frequency": "Weekly",
          "type": "Mixed",
          "local_name": "Abacha",
          "days": [
            "Mon",
            "Tue",
            "Wed",
            "Thu",
            "Fri",
            "Sat",
            "Sun"
          ]
        },
        {
          "name": "Abakaliki Abakpa Main Market",
          "slug": "abakaliki-abakpa-main-market",
          "coordinates": {
            "lat": 6.32218,
            "lng": 8.113978333
          },
          "added_by": "GRID3 (racheal.olarewaju)",
          "frequency": "Monthly",
          "type": "Mixed",
          "local_name": "Gunning Road",
          "days": [
            "Mon",
            "Tue",
            "Wed",
            "Thu",
            "Fri",
            "Sat",
            "Sun"
          ]
        },
        {
          "name": "Abakaliki Building Materials Market 1",
          "slug": "abakaliki-building-materials-market-1",
          "coordinates": {
            "lat": 6.310753775,
            "lng": 8.103402867
          },
          "added_by": "GRID3 (racheal.olarewaju)",
          "frequency": "Weekly",
          "type": "Mixed",
          "local_name": "Afikpo Abakaliki Express Way",
          "days": [
            "Mon",
            "Tue",
            "Fri",
            "Sun"
          ]
        },
        {
          "name": "Abakpa Main Market Abakaliki",
          "slug": "abakpa-main-market-abakaliki",
          "coordinates": {
            "lat": 6.322095,
            "lng": 8.114096667
          },
          "added_by": "GRID3 (racheal.olarewaju)",
          "local_name": "Abakpa"
        },
        {
          "name": "Abapka Food Stuff Market, Abakaliki",
          "slug": "abapka-food-stuff-market-abakaliki",
          "coordinates": {
            "lat": 6.322063333,
            "lng": 8.114058333
          },
          "added_by": "GRID3 (racheal.olarewaju)",
          "local_name": "Abapka Food Stuff"
        },
        {
          "name": "Achacha Market, Abakaliki",
          "slug": "achacha-market-abakaliki",
          "coordinates": {
            "lat": 6.2855,
            "lng": 8.396211667
          },
          "added_by": "GRID3 (racheal.olarewaju)",
          "local_name": "Achacha"
        },
        {
          "name": "Achara Nkaleke Market, Abakaliki",
          "slug": "achara-nkaleke-market-abakaliki",
          "coordinates": {
            "lat": 6.323351667,
            "lng": 8.155913333
          },
          "added_by": "GRID3 (racheal.olarewaju)",
          "frequency": "Weekly",
          "type": "Food Stuff",
          "local_name": "Achara",
          "days": [
            "Sun"
          ]
        },
        {
          "name": "Afia Opeke, Abakaliki",
          "slug": "afia-opeke-abakaliki",
          "coordinates": {
            "lat": 6.2320983,
            "lng": 8.1981233
          },
          "added_by": "GRID3 (racheal.olarewaju)",
          "local_name": "Afia Opeke"
        },
        {
          "name": "Afia Urenyanshi, Abakaliki",
          "slug": "afia-urenyanshi-abakaliki",
          "coordinates": {
            "lat": 6.2240133,
            "lng": 8.2097817
          },
          "added_by": "GRID3 (racheal.olarewaju)",
          "local_name": "Afia Urenyanshi"
        },
        {
          "name": "Afiaogo, Abakaliki",
          "slug": "afiaogo-abakaliki",
          "coordinates": {
            "lat": 6.277856667,
            "lng": 8.101773333
          },
          "added_by": "GRID3 (racheal.olarewaju)",
          "local_name": "Afiaogo"
        },
        {
          "name": "Afor Ugbodo Market, Abakaliki",
          "slug": "afor-ugbodo-market-abakaliki",
          "coordinates": {
            "lat": 6.32992,
            "lng": 8.1297
          },
          "added_by": "GRID3 (racheal.olarewaju)",
          "frequency": "Weekly",
          "type": "Mixed",
          "local_name": "Ugbodo",
          "days": [
            "Sun"
          ]
        },
        {
          "name": "Afro Market, Abakaliki",
          "slug": "afro-market-abakaliki",
          "coordinates": {
            "lat": 6.24337,
            "lng": 8.066885
          },
          "added_by": "GRID3 (racheal.olarewaju)",
          "frequency": "Weekly",
          "type": "Food Stuff",
          "local_name": "Ngamgbo Igwe",
          "days": [
            "Mon",
            "Tue",
            "Fri",
            "Sun"
          ]
        },
        {
          "name": "Ahia Uzo, Abakaliki",
          "slug": "ahia-uzo-abakaliki",
          "coordinates": {
            "lat": 6.294745,
            "lng": 8.087041667
          },
          "added_by": "GRID3 (racheal.olarewaju)",
          "frequency": "Weekly",
          "type": "Food Stuff",
          "local_name": "Nkaliki",
          "days": [
            "Mon",
            "Tue",
            "Wed",
            "Thu",
            "Fri",
            "Sat",
            "Sun"
          ]
        },
        {
          "name": "Akahuzor Obegu Ibom Market, Abakaliki",
          "slug": "akahuzor-obegu-ibom-market-abakaliki",
          "coordinates": {
            "lat": 6.273141667,
            "lng": 8.400005
          },
          "added_by": "GRID3 (racheal.olarewaju)",
          "frequency": "Weekly",
          "type": "Mixed",
          "local_name": "Akahuzor Obegu Ibom",
          "days": [
            "Sun"
          ]
        },
        {
          "name": "Akpe Amachi Market, Abakaliki",
          "slug": "akpe-amachi-market-abakaliki",
          "coordinates": {
            "lat": 6.288041667,
            "lng": 8.34273
          },
          "added_by": "GRID3 (racheal.olarewaju)",
          "frequency": "Weekly",
          "type": "Mixed",
          "local_name": "Akpe Amachi",
          "days": [
            "Sun"
          ]
        },
        {
          "name": "Amegu Onicha Market, Abakaliki",
          "slug": "amegu-onicha-market-abakaliki",
          "coordinates": {
            "lat": 6.230551667,
            "lng": 8.126511667
          },
          "added_by": "GRID3 (tosin.williams)",
          "frequency": "Weekly",
          "type": "Food Stuff",
          "local_name": "Amegu Onicha",
          "days": [
            "Mon",
            "Tue",
            "Wed",
            "Thu",
            "Fri",
            "Sat",
            "Sun"
          ]
        },
        {
          "name": "Ametta Market, Abakaliki",
          "slug": "ametta-market-abakaliki",
          "coordinates": {
            "lat": 6.2903,
            "lng": 8.324255
          },
          "added_by": "GRID3 (racheal.olarewaju)",
          "frequency": "Weekly",
          "type": "Mixed",
          "local_name": "Ametta",
          "days": [
            "Sun"
          ]
        },
        {
          "name": "Ana Ette Amachi, Abakaliki",
          "slug": "ana-ette-amachi-abakaliki",
          "coordinates": {
            "lat": 6.2855,
            "lng": 8.350173333
          },
          "added_by": "GRID3 (racheal.olarewaju)",
          "frequency": "Weekly",
          "type": "Mixed",
          "local_name": "Ette Amachi",
          "days": [
            "Sun"
          ]
        },
        {
          "name": "Anamachaa Market, Abakaliki",
          "slug": "anamachaa-market-abakaliki",
          "coordinates": {
            "lat": 6.256376667,
            "lng": 8.239841667
          },
          "added_by": "GRID3 (racheal.olarewaju)",
          "frequency": "Weekly",
          "type": "Food Stuff",
          "local_name": "Anamachaa",
          "days": [
            "Mon",
            "Sun"
          ]
        },
        {
          "name": "Animal Market Onueke, Abakaliki",
          "slug": "animal-market-onueke-abakaliki",
          "coordinates": {
            "lat": 6.17733,
            "lng": 8.03768
          },
          "added_by": "GRID3 (racheal.olarewaju)",
          "local_name": "Animal Onueke"
        },
        {
          "name": "Awka Street Market, Abakaliki",
          "slug": "awka-street-market-abakaliki",
          "coordinates": {
            "lat": 6.322765,
            "lng": 8.114333333
          },
          "added_by": "GRID3 (racheal.olarewaju)",
          "frequency": "Other",
          "type": "Mixed",
          "local_name": "Awka Street Ojowere Street",
          "days": [
            "Mon",
            "Tue",
            "Fri",
            "Sun"
          ]
        },
        {
          "name": "Azuakpara Market, Abakaliki",
          "slug": "azuakpara-market-abakaliki",
          "coordinates": {
            "lat": 6.259013333,
            "lng": 8.0904
          },
          "added_by": "GRID3 (racheal.olarewaju)",
          "frequency": "Weekly",
          "type": "Mixed",
          "local_name": "Eguakpu Market",
          "days": [
            "Mon",
            "Tue",
            "Wed",
            "Thu",
            "Fri",
            "Sat",
            "Sun"
          ]
        },
        {
          "name": "Building Material Line A, Abakaliki",
          "slug": "building-material-line-a-abakaliki",
          "coordinates": {
            "lat": 6.31109,
            "lng": 8.104775
          },
          "added_by": "GRID3 (racheal.olarewaju)",
          "frequency": "Weekly",
          "type": "Mixed",
          "local_name": "Afikpo Road",
          "days": [
            "Mon",
            "Tue",
            "Fri",
            "Sun"
          ]
        },
        {
          "name": "Building Material Line B, Abakaliki",
          "slug": "building-material-line-b-abakaliki",
          "coordinates": {
            "lat": 6.311018333,
            "lng": 8.10505
          },
          "added_by": "GRID3 (racheal.olarewaju)",
          "frequency": "Weekly",
          "type": "Mixed",
          "local_name": "Onu-ichita Agbaja",
          "days": [
            "Mon",
            "Tue",
            "Fri",
            "Sun"
          ]
        },
        {
          "name": "Eduphu Nwaba Market, Abakaliki",
          "slug": "eduphu-nwaba-market-abakaliki",
          "coordinates": {
            "lat": 6.253703333,
            "lng": 8.290123333
          },
          "added_by": "GRID3 (racheal.olarewaju)",
          "local_name": "Eduphu Nwaba"
        },
        {
          "name": "Egwegu Market, Abakaliki",
          "slug": "egwegu-market-abakaliki",
          "coordinates": {
            "lat": 6.27188,
            "lng": 8.290265
          },
          "added_by": "GRID3 (racheal.olarewaju)",
          "local_name": "Egwegu"
        },
        {
          "name": "Eke Aba Market 1, Abakaliki",
          "slug": "eke-aba-market-1-abakaliki",
          "coordinates": {
            "lat": 6.292766667,
            "lng": 8.099075
          },
          "added_by": "GRID3 (racheal.olarewaju)",
          "frequency": "Weekly",
          "type": "Food Stuff",
          "local_name": "Hausa Quarters",
          "days": [
            "Sun"
          ]
        },
        {
          "name": "Eke Aba Market 2, Abakaliki",
          "slug": "eke-aba-market-2-abakaliki",
          "coordinates": {
            "lat": 6.292821667,
            "lng": 8.099181667
          },
          "added_by": "GRID3 (racheal.olarewaju)",
          "local_name": "Eke Aba 2"
        },
        {
          "name": "Eke Onunwachi Market, Abakaliki",
          "slug": "eke-onunwachi-market-abakaliki",
          "coordinates": {
            "lat": 6.3297,
            "lng": 8.129931667
          },
          "added_by": "GRID3 (racheal.olarewaju)",
          "frequency": "Weekly",
          "type": "Food Stuff",
          "local_name": "Onunwachi",
          "days": [
            "Mon",
            "Sun"
          ]
        },
        {
          "name": "Ekeaba Market, Abakaliki",
          "slug": "ekeaba-market-abakaliki",
          "coordinates": {
            "lat": 6.324075,
            "lng": 8.121423333
          },
          "added_by": "GRID3 (racheal.olarewaju)",
          "frequency": "Weekly",
          "type": "Mixed",
          "local_name": "Ohofia Street",
          "days": [
            "Mon",
            "Tue",
            "Fri",
            "Sun"
          ]
        },
        {
          "name": "Eketube Market, Abakaliki",
          "slug": "eketube-market-abakaliki",
          "coordinates": {
            "lat": 6.21094,
            "lng": 8.192903333
          },
          "added_by": "GRID3 (racheal.olarewaju)",
          "frequency": "Weekly",
          "type": "Food Stuff",
          "local_name": "Eketube",
          "days": [
            "Mon",
            "Sun"
          ]
        },
        {
          "name": "Ekori Market, Abakaliki",
          "slug": "ekori-market-abakaliki",
          "coordinates": {
            "lat": 6.255878333,
            "lng": 8.269305
          },
          "added_by": "GRID3 (tosin.williams)",
          "frequency": "Weekly",
          "type": "Mixed",
          "local_name": "Ekori",
          "days": [
            "Sun"
          ]
        },
        {
          "name": "Eliagbala Market, Abakaliki",
          "slug": "eliagbala-market-abakaliki",
          "coordinates": {
            "lat": 6.258721667,
            "lng": 8.090105
          },
          "added_by": "GRID3 (racheal.olarewaju)",
          "frequency": "Weekly",
          "type": "Food Stuff",
          "local_name": "Eliagbala",
          "days": [
            "Mon",
            "Sun"
          ]
        },
        {
          "name": "Ette Amachi Market, Abakaliki",
          "slug": "ette-amachi-market-abakaliki",
          "coordinates": {
            "lat": 6.283908333,
            "lng": 8.368505
          },
          "added_by": "GRID3 (racheal.olarewaju)",
          "frequency": "Weekly",
          "type": "Mixed",
          "local_name": "Ette Amachi",
          "days": [
            "Sun"
          ]
        },
        {
          "name": "Firewood Market 1, Abakaliki",
          "slug": "firewood-market-1-abakaliki",
          "coordinates": {
            "lat": 6.317233333,
            "lng": 8.118906667
          },
          "added_by": "GRID3 (racheal.olarewaju)",
          "frequency": "Weekly",
          "type": "Other",
          "local_name": "Ejidike Street",
          "days": [
            "Mon",
            "Tue",
            "Wed",
            "Thu",
            "Fri",
            "Sat",
            "Sun"
          ]
        },
        {
          "name": "Hossana Market, Abakaliki",
          "slug": "hossana-market-abakaliki",
          "coordinates": {
            "lat": 6.320978798,
            "lng": 8.114212303
          },
          "added_by": "GRID3 (racheal.olarewaju)",
          "frequency": "Weekly",
          "type": "Mixed",
          "local_name": "Hossana",
          "days": [
            "Mon",
            "Tue",
            "Fri",
            "Sun"
          ]
        },
        {
          "name": "Ichit Agbaja Market, Abakaliki",
          "slug": "ichit-agbaja-market-abakaliki",
          "coordinates": {
            "lat": 6.30739,
            "lng": 8.107358333
          },
          "added_by": "GRID3 (racheal.olarewaju)",
          "frequency": "Weekly",
          "type": "Food Stuff",
          "local_name": "Ichit Evening Market",
          "days": [
            "Mon",
            "Tue",
            "Wed",
            "Thu",
            "Fri",
            "Sat",
            "Sun"
          ]
        },
        {
          "name": "Ime Ette Market, Abakaliki",
          "slug": "ime-ette-market-abakaliki",
          "coordinates": {
            "lat": 6.283713333,
            "lng": 8.368401667
          },
          "added_by": "GRID3 (racheal.olarewaju)",
          "frequency": "Weekly",
          "type": "Mixed",
          "local_name": "Ime Ette",
          "days": [
            "Sun"
          ]
        },
        {
          "name": "Inyima Market, Abakaliki",
          "slug": "inyima-market-abakaliki",
          "coordinates": {
            "lat": 6.18697,
            "lng": 8.06751
          },
          "added_by": "GRID3 (racheal.olarewaju)",
          "local_name": "Inyima"
        },
        {
          "name": "Iron Market, Abakaliki",
          "slug": "iron-market-abakaliki",
          "coordinates": {
            "lat": 6.17637,
            "lng": 8.03924
          },
          "added_by": "GRID3 (racheal.olarewaju)",
          "local_name": "Iron"
        },
        {
          "name": "Mbam Oko Market, Abakaliki",
          "slug": "mbam-oko-market-abakaliki",
          "coordinates": {
            "lat": 6.21278,
            "lng": 8.068803333
          },
          "added_by": "GRID3 (racheal.olarewaju)",
          "frequency": "Weekly",
          "type": "Food Stuff",
          "local_name": "Ebegu Ebia",
          "days": [
            "Sun"
          ]
        },
        {
          "name": "Mgbabeluzor Market 1, Abakaliki",
          "slug": "mgbabeluzor-market-1-abakaliki",
          "coordinates": {
            "lat": 6.252956667,
            "lng": 8.36257
          },
          "added_by": "GRID3 (racheal.olarewaju)",
          "frequency": "Weekly",
          "type": "Mixed",
          "local_name": "Mgbabeluzor",
          "days": [
            "Sun"
          ]
        },
        {
          "name": "Mill, Abakaliki",
          "slug": "mill-abakaliki",
          "coordinates": {
            "lat": 6.320171667,
            "lng": 8.135085
          },
          "added_by": "GRID3 (racheal.olarewaju)",
          "frequency": "Weekly",
          "type": "Clothing",
          "local_name": "Rice Mill",
          "days": [
            "Mon",
            "Tue",
            "Fri",
            "Sun"
          ]
        },
        {
          "name": "Motor Spareparts Site, Abakaliki",
          "slug": "motor-spareparts-site-abakaliki",
          "coordinates": {
            "lat": 6.3157,
            "lng": 8.127651667
          },
          "added_by": "GRID3 (racheal.olarewaju)",
          "frequency": "Weekly",
          "type": "Mixed",
          "local_name": "Ogojarl Road",
          "days": [
            "Mon",
            "Tue",
            "Fri",
            "Sun"
          ]
        },
        {
          "name": "Motorcycle Mechanic And Spare Parts Association Site Noyo, Abakaliki",
          "slug": "motorcycle-mechanic-and-spare-parts-association-site-noyo-abakaliki",
          "coordinates": {
            "lat": 6.198456667,
            "lng": 8.23193
          },
          "added_by": "GRID3 (racheal.olarewaju)",
          "frequency": "Weekly",
          "type": "Mixed",
          "local_name": "Noyo Urban",
          "days": [
            "Mon",
            "Tue",
            "Wed",
            "Thu",
            "Fri",
            "Sat",
            "Sun"
          ]
        },
        {
          "name": "Mpurukpu Market Ofutu Enyi Echialike, Abakaliki",
          "slug": "mpurukpu-market-ofutu-enyi-echialike-abakaliki",
          "coordinates": {
            "lat": 6.20395,
            "lng": 8.21616
          },
          "added_by": "GRID3 (racheal.olarewaju)",
          "local_name": "Mpurukpu Ofutu Enyi Echialike"
        },
        {
          "name": "Mwafia Eguoshim, Abakaliki",
          "slug": "mwafia-eguoshim-abakaliki",
          "coordinates": {
            "lat": 6.258886667,
            "lng": 8.090075
          },
          "added_by": "GRID3 (racheal.olarewaju)",
          "frequency": "Other",
          "type": "Mixed",
          "local_name": "Eguoshim",
          "days": [
            "Mon",
            "Tue",
            "Wed",
            "Thu",
            "Fri",
            "Sat",
            "Sun"
          ]
        },
        {
          "name": "Ndechi Market, Abakaliki",
          "slug": "ndechi-market-abakaliki",
          "coordinates": {
            "lat": 6.22421,
            "lng": 8.28634
          },
          "added_by": "GRID3 (racheal.olarewaju)",
          "local_name": "Ndechi"
        },
        {
          "name": "Ndegbu Onyikwa Market, Abakaliki",
          "slug": "ndegbu-onyikwa-market-abakaliki",
          "coordinates": {
            "lat": 6.27886,
            "lng": 8.38553
          },
          "added_by": "GRID3 (racheal.olarewaju)",
          "frequency": "Weekly",
          "type": "Food Stuff",
          "local_name": "Ndegbu Onyikwa",
          "days": [
            "Sun"
          ]
        },
        {
          "name": "Ndiakparata Market, Abakaliki",
          "slug": "ndiakparata-market-abakaliki",
          "coordinates": {
            "lat": 6.307145343,
            "lng": 8.101006058
          },
          "added_by": "GRID3 (racheal.olarewaju)",
          "frequency": "Weekly",
          "type": "Mixed",
          "local_name": "Ndiakparata",
          "days": [
            "Mon",
            "Tue",
            "Wed",
            "Thu",
            "Fri",
            "Sat",
            "Sun"
          ]
        },
        {
          "name": "Ndianamacha Market, Abakaliki",
          "slug": "ndianamacha-market-abakaliki",
          "coordinates": {
            "lat": 6.248521667,
            "lng": 8.25022
          },
          "added_by": "GRID3 (racheal.olarewaju)",
          "frequency": "Weekly",
          "type": "Food Stuff",
          "local_name": "Ndianamacha",
          "days": [
            "Mon",
            "Sun"
          ]
        },
        {
          "name": "Ndiebor Oferekpe Market, Abakaliki",
          "slug": "ndiebor-oferekpe-market-abakaliki",
          "coordinates": {
            "lat": 6.31203,
            "lng": 8.33239
          },
          "added_by": "GRID3 (racheal.olarewaju)",
          "local_name": "Ndiebor Oferekpe"
        },
        {
          "name": "Ndijiakpu Market, Abakaliki",
          "slug": "ndijiakpu-market-abakaliki",
          "coordinates": {
            "lat": 6.206341667,
            "lng": 8.269548333
          },
          "added_by": "GRID3 (racheal.olarewaju)",
          "frequency": "Other",
          "type": "Mixed",
          "local_name": "Ndijiakpu",
          "days": [
            "Mon",
            "Tue",
            "Wed",
            "Thu",
            "Fri",
            "Sat",
            "Sun"
          ]
        },
        {
          "name": "Ndinwangele Market, Abakaliki",
          "slug": "ndinwangele-market-abakaliki",
          "coordinates": {
            "lat": 6.288785,
            "lng": 8.376193333
          },
          "added_by": "GRID3 (racheal.olarewaju)",
          "frequency": "Weekly",
          "type": "Mixed",
          "local_name": "Ndinwangele",
          "days": [
            "Sun"
          ]
        },
        {
          "name": "Ndiofutu Market 1, Abakaliki",
          "slug": "ndiofutu-market-1-abakaliki",
          "coordinates": {
            "lat": 6.29183,
            "lng": 8.137956667
          },
          "added_by": "GRID3 (racheal.olarewaju)",
          "frequency": "Weekly",
          "type": "Mixed",
          "local_name": "Ndiofutu",
          "days": [
            "Sun"
          ]
        },
        {
          "name": "Ndubia Market Aqear, Abakaliki",
          "slug": "ndubia-market-aqear-abakaliki",
          "coordinates": {
            "lat": 6.24214,
            "lng": 8.262158333
          },
          "added_by": "GRID3 (racheal.olarewaju)",
          "frequency": "Bi-Weekly",
          "type": "Food Stuff",
          "local_name": "Ndubia",
          "days": [
            "Sun"
          ]
        },
        {
          "name": "New Timber Wood Market, Abakaliki",
          "slug": "new-timber-wood-market-abakaliki",
          "coordinates": {
            "lat": 6.238341667,
            "lng": 8.098303333
          },
          "added_by": "GRID3 (racheal.olarewaju)",
          "frequency": "Monthly",
          "type": "Other",
          "local_name": "New Timber",
          "days": [
            "Mon",
            "Tue",
            "Fri",
            "Sun"
          ]
        },
        {
          "name": "Nkaliki Road Market, Abakaliki",
          "slug": "nkaliki-road-market-abakaliki",
          "coordinates": {
            "lat": 6.301,
            "lng": 8.093151667
          },
          "added_by": "GRID3 (racheal.olarewaju)",
          "frequency": "Weekly",
          "type": "Food Stuff",
          "local_name": "Nkaliki",
          "days": [
            "Mon",
            "Tue",
            "Wed",
            "Thu",
            "Fri",
            "Sat",
            "Sun"
          ]
        },
        {
          "name": "Nkwagu Market, Abakaliki",
          "slug": "nkwagu-market-abakaliki",
          "coordinates": {
            "lat": 6.254915,
            "lng": 8.111543333
          },
          "added_by": "GRID3 (racheal.olarewaju)",
          "frequency": "Weekly",
          "type": "Mixed",
          "local_name": "Nwkagu Amagu",
          "days": [
            "Mon",
            "Tue",
            "Wed",
            "Thu",
            "Fri",
            "Sat",
            "Sun"
          ]
        },
        {
          "name": "Nkwo Igweledeoha, Abakaliki",
          "slug": "nkwo-igweledeoha-abakaliki",
          "coordinates": {
            "lat": 6.228965,
            "lng": 8.064268333
          },
          "added_by": "GRID3 (racheal.olarewaju)",
          "frequency": "Bi-Weekly",
          "type": "Food Stuff",
          "local_name": "Igweledeoha",
          "days": [
            "Sun"
          ]
        },
        {
          "name": "Nkwo Ndiechi Market, Abakaliki",
          "slug": "nkwo-ndiechi-market-abakaliki",
          "coordinates": {
            "lat": 6.2193,
            "lng": 8.29965
          },
          "added_by": "GRID3 (racheal.olarewaju)",
          "local_name": "Nkwo Ndiechi"
        },
        {
          "name": "Noyo Junction Market, Abakaliki",
          "slug": "noyo-junction-market-abakaliki",
          "coordinates": {
            "lat": 6.197608333,
            "lng": 8.23115
          },
          "added_by": "GRID3 (racheal.olarewaju)",
          "frequency": "Weekly",
          "type": "Mixed",
          "local_name": "Epkata Noyo",
          "days": [
            "Sun"
          ]
        },
        {
          "name": "Noyo Market, Abakaliki",
          "slug": "noyo-market-abakaliki",
          "coordinates": {
            "lat": 6.198948333,
            "lng": 8.234331667
          },
          "added_by": "GRID3 (racheal.olarewaju)",
          "frequency": "Weekly",
          "type": "Mixed",
          "local_name": "Opkodu Noyo",
          "days": [
            "Sun"
          ]
        },
        {
          "name": "Noyo Regional Market, Abakaliki",
          "slug": "noyo-regional-market-abakaliki",
          "coordinates": {
            "lat": 6.19895,
            "lng": 8.23381
          },
          "added_by": "GRID3 (racheal.olarewaju)",
          "local_name": "Noyo Regional"
        },
        {
          "name": "Nwaelegu Market, Abakaliki",
          "slug": "nwaelegu-market-abakaliki",
          "coordinates": {
            "lat": 6.2075,
            "lng": 8.21969
          },
          "added_by": "GRID3 (racheal.olarewaju)",
          "local_name": "Nwaelegu"
        },
        {
          "name": "Nwafia Ijaga, Abakaliki",
          "slug": "nwafia-ijaga-abakaliki",
          "coordinates": {
            "lat": 6.244923333,
            "lng": 8.370655
          },
          "added_by": "GRID3 (racheal.olarewaju)",
          "frequency": "Weekly",
          "type": "Mixed",
          "local_name": "Omaoffia Ijaga",
          "days": [
            "Sun"
          ]
        },
        {
          "name": "Nwafia Obegu Ibom, Abakaliki",
          "slug": "nwafia-obegu-ibom-abakaliki",
          "coordinates": {
            "lat": 6.272708333,
            "lng": 8.399801667
          },
          "added_by": "GRID3 (racheal.olarewaju)",
          "frequency": "Weekly",
          "type": "Food Stuff",
          "local_name": "Obegu Ibom",
          "days": [
            "Sun"
          ]
        },
        {
          "name": "Nwafia Obegu Market, Abakaliki",
          "slug": "nwafia-obegu-market-abakaliki",
          "coordinates": {
            "lat": 6.20638,
            "lng": 8.2698
          },
          "added_by": "GRID3 (racheal.olarewaju)",
          "local_name": "Nwafia Obegu"
        },
        {
          "name": "Nwafia Ogu, Abakaliki",
          "slug": "nwafia-ogu-abakaliki",
          "coordinates": {
            "lat": 6.21105,
            "lng": 8.063801667
          },
          "added_by": "GRID3 (racheal.olarewaju)",
          "frequency": "Weekly",
          "type": "Mixed",
          "local_name": "Amaze",
          "days": [
            "Mon",
            "Tue",
            "Fri",
            "Sun"
          ]
        },
        {
          "name": "Nwafia Onuoji Market, Abakaliki",
          "slug": "nwafia-onuoji-market-abakaliki",
          "coordinates": {
            "lat": 6.20559,
            "lng": 8.06111
          },
          "added_by": "GRID3 (racheal.olarewaju)",
          "local_name": "Nwafia Onuoji"
        },
        {
          "name": "Nwafia Umuome, Abakaliki",
          "slug": "nwafia-umuome-abakaliki",
          "coordinates": {
            "lat": 6.211336667,
            "lng": 8.056993333
          },
          "added_by": "GRID3 (racheal.olarewaju)",
          "local_name": "Nwafia Umuome"
        },
        {
          "name": "Nwafiaba Mgbo Market, Abakaliki",
          "slug": "nwafiaba-mgbo-market-abakaliki",
          "coordinates": {
            "lat": 6.35002,
            "lng": 8.1357
          },
          "added_by": "GRID3 (racheal.olarewaju)",
          "local_name": "Nwafiaba Mgbo"
        },
        {
          "name": "Nwakpu Ndiova Market, Abakaliki",
          "slug": "nwakpu-ndiova-market-abakaliki",
          "coordinates": {
            "lat": 6.22304,
            "lng": 8.25023
          },
          "added_by": "GRID3 (racheal.olarewaju)",
          "local_name": "Nwakpu Ndiova"
        },
        {
          "name": "Nwankwor Ohoffia Market, Abakaliki",
          "slug": "nwankwor-ohoffia-market-abakaliki",
          "coordinates": {
            "lat": 6.20492,
            "lng": 8.06885
          },
          "added_by": "GRID3 (racheal.olarewaju)",
          "local_name": "Nwankwor Ohoffia"
        },
        {
          "name": "Nwaohoke Mark, Abakaliki",
          "slug": "nwaohoke-mark-abakaliki",
          "coordinates": {
            "lat": 6.271838333,
            "lng": 8.291921667
          },
          "added_by": "GRID3 (racheal.olarewaju)",
          "frequency": "Other",
          "type": "Food Stuff",
          "local_name": "Opkaku Market",
          "days": [
            "Sun"
          ]
        },
        {
          "name": "Nweke Market Omegu Ndiakparata Echialike, Abakaliki",
          "slug": "nweke-market-omegu-ndiakparata-echialike-abakaliki",
          "coordinates": {
            "lat": 6.22469,
            "lng": 8.22579
          },
          "added_by": "GRID3 (racheal.olarewaju)",
          "local_name": "Nweke Omegu Ndiakparata Echialike"
        },
        {
          "name": "Nwelem Market Square, Abakaliki",
          "slug": "nwelem-market-square-abakaliki",
          "coordinates": {
            "lat": 6.20759,
            "lng": 8.219533333
          },
          "added_by": "GRID3 (racheal.olarewaju)",
          "frequency": "Weekly",
          "type": "Mixed",
          "local_name": "Ndieluagu Echialike",
          "days": [
            "Sun"
          ]
        },
        {
          "name": "Nwodom Ohabele, Abakaliki",
          "slug": "nwodom-ohabele-abakaliki",
          "coordinates": {
            "lat": 6.25309,
            "lng": 8.389505
          },
          "added_by": "GRID3 (racheal.olarewaju)",
          "frequency": "Weekly",
          "type": "Mixed",
          "local_name": "Ohabele",
          "days": [
            "Sun"
          ]
        },
        {
          "name": "Nwodopu, Abakaliki",
          "slug": "nwodopu-abakaliki",
          "coordinates": {
            "lat": 6.297806667,
            "lng": 8.29633
          },
          "added_by": "GRID3 (racheal.olarewaju)",
          "frequency": "Weekly",
          "type": "Food Stuff",
          "local_name": "Offia Oku",
          "days": [
            "Sun"
          ]
        },
        {
          "name": "Nwodugoru Market, Abakaliki",
          "slug": "nwodugoru-market-abakaliki",
          "coordinates": {
            "lat": 6.228975,
            "lng": 8.070103333
          },
          "added_by": "GRID3 (racheal.olarewaju)",
          "frequency": "Weekly",
          "type": "Food Stuff",
          "local_name": "Ohamini Village",
          "days": [
            "Sun"
          ]
        },
        {
          "name": "Nwori Market, Abakaliki",
          "slug": "nwori-market-abakaliki",
          "coordinates": {
            "lat": 6.28545,
            "lng": 8.3963
          },
          "added_by": "GRID3 (racheal.olarewaju)",
          "local_name": "Nwori"
        },
        {
          "name": "Obiora Market, Abakaliki",
          "slug": "obiora-market-abakaliki",
          "coordinates": {
            "lat": 6.323700988,
            "lng": 8.121423333
          },
          "added_by": "GRID3 (racheal.olarewaju)",
          "frequency": "Monthly",
          "type": "Food Stuff",
          "local_name": "Obiora",
          "days": [
            "Mon",
            "Tue",
            "Wed",
            "Thu",
            "Fri",
            "Sat",
            "Sun"
          ]
        },
        {
          "name": "Obiri Street Market, Abakaliki",
          "slug": "obiri-street-market-abakaliki",
          "coordinates": {
            "lat": 6.321548333,
            "lng": 8.114558333
          },
          "added_by": "GRID3 (racheal.olarewaju)",
          "frequency": "Monthly",
          "type": "Mixed",
          "local_name": "Obiri Street",
          "days": [
            "Mon",
            "Tue",
            "Fri",
            "Sun"
          ]
        },
        {
          "name": "Ochiriozuo Market, Abakaliki",
          "slug": "ochiriozuo-market-abakaliki",
          "coordinates": {
            "lat": 6.303151667,
            "lng": 8.09529
          },
          "added_by": "GRID3 (racheal.olarewaju)",
          "frequency": "Weekly",
          "type": "Food Stuff",
          "local_name": "Ochiriozuo",
          "days": [
            "Mon",
            "Tue",
            "Wed",
            "Thu",
            "Fri",
            "Sat",
            "Sun"
          ]
        },
        {
          "name": "Odagere Noyo Market, Abakaliki",
          "slug": "odagere-noyo-market-abakaliki",
          "coordinates": {
            "lat": 6.225546667,
            "lng": 8.269005
          },
          "added_by": "GRID3 (tosin.williams)",
          "frequency": "Weekly",
          "type": "Mixed",
          "local_name": "Odagere Noyo",
          "days": [
            "Sun"
          ]
        },
        {
          "name": "Odageri Market, Abakaliki",
          "slug": "odageri-market-abakaliki",
          "coordinates": {
            "lat": 6.2254,
            "lng": 8.26921
          },
          "added_by": "GRID3 (tosin.williams)",
          "local_name": "Odageri"
        },
        {
          "name": "Odeligbo Market 2, Abakaliki",
          "slug": "odeligbo-market-2-abakaliki",
          "coordinates": {
            "lat": 6.27485,
            "lng": 8.186941667
          },
          "added_by": "GRID3 (racheal.olarewaju)",
          "frequency": "Bi-Weekly",
          "type": "Food Stuff",
          "local_name": "Opuitumo",
          "days": [
            "Sun"
          ]
        },
        {
          "name": "Odeligbo Market, Abakaliki",
          "slug": "odeligbo-market-abakaliki",
          "coordinates": {
            "lat": 6.229343333,
            "lng": 8.375506667
          },
          "added_by": "GRID3 (racheal.olarewaju)",
          "local_name": "Odeligbo"
        },
        {
          "name": "Oferekpe Market, Abakaliki",
          "slug": "oferekpe-market-abakaliki",
          "coordinates": {
            "lat": 6.30431,
            "lng": 8.35768
          },
          "added_by": "GRID3 (racheal.olarewaju)",
          "local_name": "Oferekpe"
        },
        {
          "name": "Offerekpe 2 Market, Abakaliki",
          "slug": "offerekpe-2-market-abakaliki",
          "coordinates": {
            "lat": 6.312391667,
            "lng": 8.332198333
          },
          "added_by": "GRID3 (racheal.olarewaju)",
          "frequency": "Weekly",
          "type": "Mixed",
          "local_name": "Offerekpe 2",
          "days": [
            "Sun"
          ]
        },
        {
          "name": "Offerekpe Igbeagu Market, Abakaliki",
          "slug": "offerekpe-igbeagu-market-abakaliki",
          "coordinates": {
            "lat": 6.30441,
            "lng": 8.357678333
          },
          "added_by": "GRID3 (racheal.olarewaju)",
          "frequency": "Weekly",
          "type": "Mixed",
          "local_name": "Offerekpe Igbeagu",
          "days": [
            "Sun"
          ]
        },
        {
          "name": "Ogbono Market, Abakaliki",
          "slug": "ogbono-market-abakaliki",
          "coordinates": {
            "lat": 6.323558333,
            "lng": 8.121395
          },
          "added_by": "GRID3 (racheal.olarewaju)",
          "frequency": "Weekly",
          "type": "Mixed",
          "local_name": "Eke Aba",
          "days": [
            "Mon",
            "Tue",
            "Fri",
            "Sun"
          ]
        },
        {
          "name": "Ogwunkwu Achacha Market, Abakaliki",
          "slug": "ogwunkwu-achacha-market-abakaliki",
          "coordinates": {
            "lat": 6.302981667,
            "lng": 8.388548333
          },
          "added_by": "GRID3 (racheal.olarewaju)",
          "local_name": "Ogwunkwu Achacha"
        },
        {
          "name": "Ohofia Market, Abakaliki",
          "slug": "ohofia-market-abakaliki",
          "coordinates": {
            "lat": 6.32424,
            "lng": 8.115813333
          },
          "added_by": "GRID3 (racheal.olarewaju)",
          "frequency": "Weekly",
          "type": "Food Stuff",
          "local_name": "Ohofia",
          "days": [
            "Mon",
            "Tue",
            "Wed",
            "Thu",
            "Fri",
            "Sat",
            "Sun"
          ]
        },
        {
          "name": "Okaria Amachi Market, Abakaliki",
          "slug": "okaria-amachi-market-abakaliki",
          "coordinates": {
            "lat": 6.261813333,
            "lng": 8.35059
          },
          "added_by": "GRID3 (racheal.olarewaju)",
          "frequency": "Weekly",
          "type": "Mixed",
          "local_name": "Okaria Amachi",
          "days": [
            "Sun"
          ]
        },
        {
          "name": "Onu Ichitta Foodstuffs Market, Abakaliki",
          "slug": "onu-ichitta-foodstuffs-market-abakaliki",
          "coordinates": {
            "lat": 6.309555,
            "lng": 8.106151667
          },
          "added_by": "GRID3 (racheal.olarewaju)",
          "frequency": "Weekly",
          "type": "Food Stuff",
          "local_name": "Onu-ichita Agbaja",
          "days": [
            "Mon",
            "Tue",
            "Fri",
            "Sun"
          ]
        },
        {
          "name": "Onukpara Market, Abakaliki",
          "slug": "onukpara-market-abakaliki",
          "coordinates": {
            "lat": 6.247536667,
            "lng": 8.264945
          },
          "added_by": "GRID3 (tosin.williams)",
          "frequency": "Weekly",
          "type": "Food Stuff",
          "local_name": "Onukpara",
          "days": [
            "Mon",
            "Sun"
          ]
        },
        {
          "name": "Onyirigbo Market Square, Abakaliki",
          "slug": "onyirigbo-market-square-abakaliki",
          "coordinates": {
            "lat": 6.269501667,
            "lng": 8.327548333
          },
          "added_by": "GRID3 (racheal.olarewaju)",
          "frequency": "Weekly",
          "type": "Food Stuff",
          "local_name": "Onyirigbo",
          "days": [
            "Sun"
          ]
        },
        {
          "name": "Orie Onunwaorie, Abakaliki",
          "slug": "orie-onunwaorie-abakaliki",
          "coordinates": {
            "lat": 6.275291667,
            "lng": 8.100863333
          },
          "added_by": "GRID3 (racheal.olarewaju)",
          "frequency": "Weekly",
          "type": "Mixed",
          "local_name": "Onunwaorie",
          "days": [
            "Sun"
          ]
        },
        {
          "name": "Orlu Street Market, Abakaliki",
          "slug": "orlu-street-market-abakaliki",
          "coordinates": {
            "lat": 6.321741667,
            "lng": 8.11501
          },
          "added_by": "GRID3 (racheal.olarewaju)",
          "frequency": "Monthly",
          "type": "Mixed",
          "local_name": "Orlu Street Settlement",
          "days": [
            "Mon",
            "Tue",
            "Fri",
            "Sun"
          ]
        },
        {
          "name": "Plantain Market Nwike Street, Abakaliki",
          "slug": "plantain-market-nwike-street-abakaliki",
          "coordinates": {
            "lat": 6.322106667,
            "lng": 8.123266667
          },
          "added_by": "GRID3 (racheal.olarewaju)",
          "frequency": "Monthly",
          "type": "Food Stuff",
          "local_name": "Nwike Street",
          "days": [
            "Mon",
            "Tue",
            "Fri",
            "Sun"
          ]
        },
        {
          "name": "Plantains Market Udi Street, Abakaliki",
          "slug": "plantains-market-udi-street-abakaliki",
          "coordinates": {
            "lat": 6.322313333,
            "lng": 8.122435
          },
          "added_by": "GRID3 (racheal.olarewaju)",
          "frequency": "Weekly",
          "type": "Mixed",
          "local_name": "Udi Street",
          "days": [
            "Mon",
            "Tue",
            "Fri",
            "Sun"
          ]
        },
        {
          "name": "Rice Market Onueke Ezza South, Abakaliki",
          "slug": "rice-market-onueke-ezza-south-abakaliki",
          "coordinates": {
            "lat": 6.1768083,
            "lng": 8.0386167
          },
          "added_by": "GRID3 (racheal.olarewaju)",
          "frequency": "Weekly",
          "type": "Other",
          "local_name": "Amuzu Onueke Urban",
          "days": [
            "Mon",
            "Tue",
            "Fri",
            "Sun"
          ]
        },
        {
          "name": "Rice Mill Market 1, Abakaliki",
          "slug": "rice-mill-market-1-abakaliki",
          "coordinates": {
            "lat": 6.318405,
            "lng": 8.133788333
          },
          "added_by": "GRID3 (racheal.olarewaju)",
          "frequency": "Weekly",
          "type": "Food Stuff",
          "local_name": "Ogoja Road",
          "days": [
            "Mon",
            "Tue",
            "Fri",
            "Sun"
          ]
        },
        {
          "name": "Rice Mill Market 2, Abakaliki",
          "slug": "rice-mill-market-2-abakaliki",
          "coordinates": {
            "lat": 6.321295,
            "lng": 8.134451667
          },
          "added_by": "GRID3 (racheal.olarewaju)",
          "frequency": "Weekly",
          "type": "Mixed",
          "local_name": "Rice Mill",
          "days": [
            "Mon",
            "Tue",
            "Fri",
            "Sun"
          ]
        },
        {
          "name": "Sparando Junction Market, Abakaliki",
          "slug": "sparando-junction-market-abakaliki",
          "coordinates": {
            "lat": 6.308965,
            "lng": 8.101948333
          },
          "added_by": "GRID3 (racheal.olarewaju)",
          "frequency": "Other",
          "type": "Food Stuff",
          "local_name": "Timber Shade",
          "days": [
            "Mon",
            "Tue",
            "Wed",
            "Thu",
            "Fri",
            "Sat",
            "Sun"
          ]
        },
        {
          "name": "Sperindo Market, Abakaliki",
          "slug": "sperindo-market-abakaliki",
          "coordinates": {
            "lat": 6.309583333,
            "lng": 8.104521667
          },
          "added_by": "GRID3 (racheal.olarewaju)",
          "frequency": "Weekly",
          "type": "Mixed",
          "local_name": "Afikpo Road",
          "days": [
            "Mon",
            "Tue",
            "Fri",
            "Sun"
          ]
        },
        {
          "name": "Timber Market Amagu, Abakaliki",
          "slug": "timber-market-amagu-abakaliki",
          "coordinates": {
            "lat": 6.239186667,
            "lng": 8.100195
          },
          "added_by": "GRID3 (racheal.olarewaju)",
          "frequency": "Weekly",
          "type": "Other",
          "local_name": "Amagu",
          "days": [
            "Mon",
            "Tue",
            "Fri",
            "Sun"
          ]
        },
        {
          "name": "Tipper Garage Market, Abakaliki",
          "slug": "tipper-garage-market-abakaliki",
          "coordinates": {
            "lat": 6.308296667,
            "lng": 8.105885
          },
          "added_by": "GRID3 (racheal.olarewaju)",
          "frequency": "Weekly",
          "type": "Food Stuff",
          "local_name": "Food Stuff Regional Market",
          "days": [
            "Mon",
            "Tue",
            "Fri",
            "Sun"
          ]
        },
        {
          "name": "Udi Street Vegetable Market, Abakaliki",
          "slug": "udi-street-vegetable-market-abakaliki",
          "coordinates": {
            "lat": 6.322748333,
            "lng": 8.1224
          },
          "added_by": "GRID3 (racheal.olarewaju)",
          "frequency": "Weekly",
          "type": "Other",
          "local_name": "Udi Street Settlement Market",
          "days": [
            "Mon",
            "Tue",
            "Fri",
            "Sun"
          ]
        },
        {
          "name": "Ukwuakparata, Abakaliki",
          "slug": "ukwuakparata-abakaliki",
          "coordinates": {
            "lat": 6.30779,
            "lng": 8.101173333
          },
          "added_by": "GRID3 (racheal.olarewaju)",
          "frequency": "Weekly",
          "type": "Food Stuff",
          "local_name": "Ndiakparata",
          "days": [
            "Mon",
            "Tue",
            "Wed",
            "Thu",
            "Fri",
            "Sat",
            "Sun"
          ]
        },
        {
          "name": "Ukwuakpurata Market, Abakaliki",
          "slug": "ukwuakpurata-market-abakaliki",
          "coordinates": {
            "lat": 6.340303333,
            "lng": 8.125925
          },
          "added_by": "GRID3 (racheal.olarewaju)",
          "frequency": "Weekly",
          "type": "Mixed",
          "local_name": "Egu-gwu Agbaja",
          "days": [
            "Mon",
            "Tue",
            "Wed",
            "Thu",
            "Fri",
            "Sat",
            "Sun"
          ]
        },
        {
          "name": "Umuome Market, Abakaliki",
          "slug": "umuome-market-abakaliki",
          "coordinates": {
            "lat": 6.211393333,
            "lng": 8.05714
          },
          "added_by": "GRID3 (racheal.olarewaju)",
          "frequency": "Bi-Weekly",
          "type": "Food Stuff",
          "local_name": "Azuoge",
          "days": [
            "Sun"
          ]
        },
        {
          "name": "Uwangbede Market, Abakaliki",
          "slug": "uwangbede-market-abakaliki",
          "coordinates": {
            "lat": 6.30735,
            "lng": 8.101116667
          },
          "added_by": "GRID3 (racheal.olarewaju)",
          "frequency": "Weekly",
          "type": "Mixed",
          "local_name": "Abakpa",
          "days": [
            "Mon",
            "Tue",
            "Fri",
            "Sun"
          ]
        }
      ]
    },
    {
      "name": "Afikpo North",
      "slug": "ebonyi-afikpo-north",
      "markets": [
        {
          "name": "Aborezi Ihie Market Square, Afikpo North",
          "slug": "aborezi-ihie-market-square-afikpo-north",
          "coordinates": {
            "lat": 5.91387,
            "lng": 7.88139
          },
          "added_by": "GRID3 (tosin.williams)",
          "local_name": "Aborezi Ihie Square"
        },
        {
          "name": "Afor Oma Market, Afikpo North",
          "slug": "afor-oma-market-afikpo-north",
          "coordinates": {
            "lat": 5.9717,
            "lng": 7.96296
          },
          "added_by": "GRID3 (tosin.williams)",
          "local_name": "Afor Oma"
        },
        {
          "name": "Ahia Eziahor Market, Afikpo North",
          "slug": "ahia-eziahor-market-afikpo-north",
          "coordinates": {
            "lat": 5.96782,
            "lng": 7.97006
          },
          "added_by": "GRID3 (racheal.olarewaju)",
          "local_name": "Ahia Eziahor"
        },
        {
          "name": "Ahia Market, Afikpo North",
          "slug": "ahia-market-afikpo-north",
          "coordinates": {
            "lat": 5.88599,
            "lng": 7.97555
          },
          "added_by": "GRID3 (racheal.olarewaju)",
          "local_name": "Ahia"
        },
        {
          "name": "Ahia Nnia Uro Market, Afikpo North",
          "slug": "ahia-nnia-uro-market-afikpo-north",
          "coordinates": {
            "lat": 5.8805,
            "lng": 7.97088
          },
          "added_by": "GRID3 (racheal.olarewaju)",
          "local_name": "Ahia Nnia Uro"
        },
        {
          "name": "Ahia Ogo Amachara, Afikpo North",
          "slug": "ahia-ogo-amachara-afikpo-north",
          "coordinates": {
            "lat": 5.889903333,
            "lng": 7.932755
          },
          "added_by": "GRID3 (racheal.olarewaju)",
          "frequency": "Other",
          "type": "Food Stuff",
          "local_name": "Amachara Elu",
          "days": [
            "Mon",
            "Tue",
            "Wed",
            "Thu",
            "Fri",
            "Sat",
            "Sun"
          ]
        },
        {
          "name": "Ahia Ogo Market, Afikpo North",
          "slug": "ahia-ogo-market-afikpo-north",
          "coordinates": {
            "lat": 5.86339,
            "lng": 7.94806
          },
          "added_by": "GRID3 (racheal.olarewaju)",
          "local_name": "Ahia Ogo"
        },
        {
          "name": "Ahia Okpu Market, Afikpo North",
          "slug": "ahia-okpu-market-afikpo-north",
          "coordinates": {
            "lat": 5.88386,
            "lng": 7.94748
          },
          "added_by": "GRID3 (racheal.olarewaju)",
          "local_name": "Ahia Okpu"
        },
        {
          "name": "Ahia Ugo Omachara, Afikpo North",
          "slug": "ahia-ugo-omachara-afikpo-north",
          "coordinates": {
            "lat": 5.88973,
            "lng": 7.93283
          },
          "added_by": "GRID3 (racheal.olarewaju)",
          "local_name": "Ahia Ugo Omachara"
        },
        {
          "name": "Amachi Ndukwe Market, Afikpo North",
          "slug": "amachi-ndukwe-market-afikpo-north",
          "coordinates": {
            "lat": 5.92053,
            "lng": 7.87838
          },
          "added_by": "GRID3 (racheal.olarewaju)",
          "local_name": "Amachi Ndukwe"
        },
        {
          "name": "Amaikpo Oziza Market, Afikpo North",
          "slug": "amaikpo-oziza-market-afikpo-north",
          "coordinates": {
            "lat": 5.885788333,
            "lng": 7.975511667
          },
          "added_by": "GRID3 (racheal.olarewaju)",
          "frequency": "Weekly",
          "type": "Mixed",
          "local_name": "Ezi Olugwu",
          "days": [
            "Mon",
            "Tue",
            "Wed",
            "Thu",
            "Fri",
            "Sat",
            "Sun"
          ]
        },
        {
          "name": "Amaizu Evening Market, Afikpo North",
          "slug": "amaizu-evening-market-afikpo-north",
          "coordinates": {
            "lat": 5.88026,
            "lng": 7.94198
          },
          "added_by": "GRID3 (racheal.olarewaju)",
          "local_name": "Amaizu Evening"
        },
        {
          "name": "Amaizu Market, Afikpo North",
          "slug": "amaizu-market-afikpo-north",
          "coordinates": {
            "lat": 5.880201667,
            "lng": 7.941938333
          },
          "added_by": "GRID3 (racheal.olarewaju)",
          "frequency": "Weekly",
          "type": "Mixed",
          "local_name": "Amaelu",
          "days": [
            "Mon",
            "Tue",
            "Fri",
            "Sun"
          ]
        },
        {
          "name": "Amasiri Central Market, Afikpo North",
          "slug": "amasiri-central-market-afikpo-north",
          "coordinates": {
            "lat": 5.916183333,
            "lng": 7.883465
          },
          "added_by": "GRID3 (tosin.williams)",
          "frequency": "Other",
          "type": "Mixed",
          "local_name": "Amangwu",
          "days": [
            "Mon",
            "Tue",
            "Wed",
            "Thu",
            "Fri",
            "Sat",
            "Sun"
          ]
        },
        {
          "name": "Amoge Evening Market, Afikpo North",
          "slug": "amoge-evening-market-afikpo-north",
          "coordinates": {
            "lat": 5.88813,
            "lng": 7.97066
          },
          "added_by": "GRID3 (racheal.olarewaju)",
          "local_name": "Amoge Evening"
        },
        {
          "name": "Amogu Market, Afikpo North",
          "slug": "amogu-market-afikpo-north",
          "coordinates": {
            "lat": 5.96814,
            "lng": 7.97024
          },
          "added_by": "GRID3 (racheal.olarewaju)",
          "frequency": "Weekly",
          "type": "Mixed",
          "local_name": "Amogu",
          "days": [
            "Sun"
          ]
        },
        {
          "name": "Amohia Market Square, Afikpo North",
          "slug": "amohia-market-square-afikpo-north",
          "coordinates": {
            "lat": 5.971916667,
            "lng": 7.963035
          },
          "added_by": "GRID3 (racheal.olarewaju)",
          "frequency": "Weekly",
          "type": "Mixed",
          "local_name": "Agboezi",
          "days": [
            "Sun"
          ]
        },
        {
          "name": "Efe Market Square, Afikpo North",
          "slug": "efe-market-square-afikpo-north",
          "coordinates": {
            "lat": 5.79559,
            "lng": 7.93433
          },
          "added_by": "GRID3 (racheal.olarewaju)",
          "local_name": "Efe Square"
        },
        {
          "name": "Eke Amangballa Market Square, Afikpo North",
          "slug": "eke-amangballa-market-square-afikpo-north",
          "coordinates": {
            "lat": 5.882175,
            "lng": 7.937146667
          },
          "added_by": "GRID3 (racheal.olarewaju)",
          "frequency": "Other",
          "type": "Mixed",
          "local_name": "Amangballa",
          "days": [
            "Mon",
            "Tue",
            "Wed",
            "Thu",
            "Fri",
            "Sat",
            "Sun"
          ]
        },
        {
          "name": "Eke Ihouhu Market, Afikpo North",
          "slug": "eke-ihouhu-market-afikpo-north",
          "coordinates": {
            "lat": 5.88315,
            "lng": 7.936275
          },
          "added_by": "GRID3 (racheal.olarewaju)",
          "frequency": "Other",
          "type": "Mixed",
          "local_name": "Ihuohu",
          "days": [
            "Mon",
            "Tue",
            "Fri",
            "Sun"
          ]
        },
        {
          "name": "Eke Market Park, Afikpo North",
          "slug": "eke-market-park-afikpo-north",
          "coordinates": {
            "lat": 5.88232,
            "lng": 7.93635
          },
          "added_by": "GRID3 (racheal.olarewaju)",
          "local_name": "Eke Park"
        },
        {
          "name": "Eke Market, Afikpo North",
          "slug": "eke-market-afikpo-north",
          "coordinates": {
            "lat": 5.88222,
            "lng": 7.936128333
          },
          "added_by": "GRID3 (racheal.olarewaju)",
          "frequency": "Other",
          "type": "Mixed",
          "local_name": "Eke Market",
          "days": [
            "Mon",
            "Tue",
            "Fri",
            "Sun"
          ]
        },
        {
          "name": "Elumahi Market, Afikpo North",
          "slug": "elumahi-market-afikpo-north",
          "coordinates": {
            "lat": 5.9681675,
            "lng": 7.877772922
          },
          "added_by": "GRID3 (tosin.williams)",
          "frequency": "Other",
          "type": "Mixed",
          "local_name": "Elumahi",
          "days": [
            "Mon",
            "Tue",
            "Sun"
          ]
        },
        {
          "name": "Eve Ekpiri Market, Afikpo North",
          "slug": "eve-ekpiri-market-afikpo-north",
          "coordinates": {
            "lat": 5.971401667,
            "lng": 7.954498333
          },
          "added_by": "GRID3 (racheal.olarewaju)",
          "frequency": "Other",
          "type": "Food Stuff",
          "local_name": "Ezi Agha Udu",
          "days": [
            "Mon",
            "Tue",
            "Wed",
            "Thu",
            "Fri",
            "Sat",
            "Sun"
          ]
        },
        {
          "name": "Ezi Agbor, Afikpo North",
          "slug": "ezi-agbor-afikpo-north",
          "coordinates": {
            "lat": 5.8787617,
            "lng": 7.9308533
          },
          "added_by": "GRID3 (racheal.olarewaju)",
          "frequency": "Weekly",
          "type": "Mixed",
          "local_name": "Ezi Agbor",
          "days": [
            "Mon",
            "Tue",
            "Fri",
            "Sun"
          ]
        },
        {
          "name": "Ezi Agha Ukeni Market Square, Afikpo North",
          "slug": "ezi-agha-ukeni-market-square-afikpo-north",
          "coordinates": {
            "lat": 5.796311667,
            "lng": 7.932268333
          },
          "added_by": "GRID3 (racheal.olarewaju)",
          "frequency": "Other",
          "type": "Mixed",
          "local_name": "Ezi Agha Ukeni",
          "days": [
            "Mon",
            "Tue",
            "Wed",
            "Thu",
            "Fri",
            "Sat",
            "Sun"
          ]
        },
        {
          "name": "Ezi Aja Market, Afikpo North",
          "slug": "ezi-aja-market-afikpo-north",
          "coordinates": {
            "lat": 5.886731667,
            "lng": 7.932353333
          },
          "added_by": "GRID3 (racheal.olarewaju)",
          "frequency": "Other",
          "type": "Food Stuff",
          "local_name": "Ezi Ajah",
          "days": [
            "Mon",
            "Tue",
            "Wed",
            "Thu",
            "Fri",
            "Sat",
            "Sun"
          ]
        },
        {
          "name": "Ezi Eve Ekpiri, Afikpo North",
          "slug": "ezi-eve-ekpiri-afikpo-north",
          "coordinates": {
            "lat": 5.97142,
            "lng": 7.954041667
          },
          "added_by": "GRID3 (racheal.olarewaju)",
          "frequency": "Other",
          "type": "Food Stuff",
          "local_name": "Ezi Eve Ekpiri",
          "days": [
            "Mon",
            "Tue",
            "Wed",
            "Thu",
            "Fri",
            "Sat",
            "Sun"
          ]
        },
        {
          "name": "Ezi Oji Market, Afikpo North",
          "slug": "ezi-oji-market-afikpo-north",
          "coordinates": {
            "lat": 5.97267,
            "lng": 7.955233333
          },
          "added_by": "GRID3 (racheal.olarewaju)",
          "frequency": "Other",
          "type": "Mixed",
          "local_name": "Ezi Oji",
          "days": [
            "Mon",
            "Tue",
            "Wed",
            "Thu",
            "Fri",
            "Sat",
            "Sun"
          ]
        },
        {
          "name": "Ezi Otikandi Amagu Market, Afikpo North",
          "slug": "ezi-otikandi-amagu-market-afikpo-north",
          "coordinates": {
            "lat": 5.796408333,
            "lng": 7.931731667
          },
          "added_by": "GRID3 (racheal.olarewaju)",
          "local_name": "Ezi Otikandi Amagu"
        },
        {
          "name": "Ezi Otinya Market, Afikpo North",
          "slug": "ezi-otinya-market-afikpo-north",
          "coordinates": {
            "lat": 5.7964267,
            "lng": 7.9325733
          },
          "added_by": "GRID3 (racheal.olarewaju)",
          "frequency": "Weekly",
          "type": "Food Stuff",
          "local_name": "Ezi Otinya",
          "days": [
            "Sun"
          ]
        },
        {
          "name": "Ezioti Market Square, Afikpo North",
          "slug": "ezioti-market-square-afikpo-north",
          "coordinates": {
            "lat": 5.79539,
            "lng": 7.93286
          },
          "added_by": "GRID3 (racheal.olarewaju)",
          "local_name": "Ezioti Square"
        },
        {
          "name": "Ibii Main Market, Afikpo North",
          "slug": "ibii-main-market-afikpo-north",
          "coordinates": {
            "lat": 5.934515,
            "lng": 7.9426233
          },
          "added_by": "GRID3 (racheal.olarewaju)",
          "frequency": "Weekly",
          "type": "Food Stuff",
          "local_name": "Ezi Agbor",
          "days": [
            "Sun"
          ]
        },
        {
          "name": "Ndibe Evening Market, Afikpo North",
          "slug": "ndibe-evening-market-afikpo-north",
          "coordinates": {
            "lat": 5.875815,
            "lng": 7.942895
          },
          "added_by": "GRID3 (racheal.olarewaju)",
          "frequency": "Other",
          "type": "Mixed",
          "local_name": "Nde Okpani Nde Item",
          "days": [
            "Mon",
            "Tue",
            "Wed",
            "Thu",
            "Fri",
            "Sat",
            "Sun"
          ]
        },
        {
          "name": "Nkagbogo Market, Afikpo North",
          "slug": "nkagbogo-market-afikpo-north",
          "coordinates": {
            "lat": 5.79666,
            "lng": 7.931706667
          },
          "added_by": "GRID3 (tosin.williams)",
          "local_name": "Nkagbogo"
        },
        {
          "name": "Nkagbogo, Afikpo North",
          "slug": "nkagbogo-afikpo-north",
          "coordinates": {
            "lat": 5.796678333,
            "lng": 7.931386667
          },
          "added_by": "GRID3 (tosin.williams)",
          "frequency": "Other",
          "type": "Mixed",
          "local_name": "Ezi Agha Ika",
          "days": [
            "Mon",
            "Tue",
            "Fri",
            "Sun"
          ]
        },
        {
          "name": "Ogo Eziem Market Square, Afikpo North",
          "slug": "ogo-eziem-market-square-afikpo-north",
          "coordinates": {
            "lat": 5.9099,
            "lng": 7.88118
          },
          "added_by": "GRID3 (racheal.olarewaju)",
          "local_name": "Ogo Eziem Square"
        },
        {
          "name": "Ogo Eziotu Market, Afikpo North",
          "slug": "ogo-eziotu-market-afikpo-north",
          "coordinates": {
            "lat": 5.90665,
            "lng": 7.88315
          },
          "added_by": "GRID3 (racheal.olarewaju)",
          "local_name": "Ogo Eziotu"
        },
        {
          "name": "Ogo Ibe Evening Market, Afikpo North",
          "slug": "ogo-ibe-evening-market-afikpo-north",
          "coordinates": {
            "lat": 5.868943333,
            "lng": 7.948315
          },
          "added_by": "GRID3 (racheal.olarewaju)",
          "frequency": "Other",
          "type": "Mixed",
          "local_name": "Agbo Ogo Ibe",
          "days": [
            "Mon",
            "Tue",
            "Wed",
            "Thu",
            "Fri",
            "Sat",
            "Sun"
          ]
        },
        {
          "name": "Ogo Ndukwe Market, Afikpo North",
          "slug": "ogo-ndukwe-market-afikpo-north",
          "coordinates": {
            "lat": 5.9205083,
            "lng": 7.8782633
          },
          "added_by": "GRID3 (racheal.olarewaju)",
          "frequency": "Weekly",
          "type": "Food Stuff",
          "local_name": "Ogo Ndukwe",
          "days": [
            "Mon",
            "Tue",
            "Fri",
            "Sun"
          ]
        },
        {
          "name": "Ogoibe Market Square, Afikpo North",
          "slug": "ogoibe-market-square-afikpo-north",
          "coordinates": {
            "lat": 5.86893,
            "lng": 7.94839
          },
          "added_by": "GRID3 (racheal.olarewaju)",
          "local_name": "Ogoibe Square"
        },
        {
          "name": "Otu Eke Beach Market, Afikpo North",
          "slug": "otu-eke-beach-market-afikpo-north",
          "coordinates": {
            "lat": 5.843056667,
            "lng": 7.947646667
          },
          "added_by": "GRID3 (racheal.olarewaju)",
          "frequency": "Other",
          "type": "Mixed",
          "local_name": "Ndibe New Layout",
          "days": [
            "Mon",
            "Tue",
            "Wed",
            "Thu",
            "Fri",
            "Sat",
            "Sun"
          ]
        },
        {
          "name": "Poperi Junction Market, Afikpo North",
          "slug": "poperi-junction-market-afikpo-north",
          "coordinates": {
            "lat": 5.906815,
            "lng": 7.881671667
          },
          "added_by": "GRID3 (racheal.olarewaju)",
          "frequency": "Weekly",
          "type": "Mixed",
          "local_name": "Poperi",
          "days": [
            "Mon",
            "Tue",
            "Fri",
            "Sun"
          ]
        },
        {
          "name": "Town Hall Market, Afikpo North",
          "slug": "town-hall-market-afikpo-north",
          "coordinates": {
            "lat": 5.8787,
            "lng": 7.93088
          },
          "added_by": "GRID3 (racheal.olarewaju)",
          "local_name": "Town Hall"
        },
        {
          "name": "Unwana Market Square, Afikpo North",
          "slug": "unwana-market-square-afikpo-north",
          "coordinates": {
            "lat": 5.799511667,
            "lng": 7.931341667
          },
          "added_by": "GRID3 (racheal.olarewaju)",
          "frequency": "Weekly",
          "type": "Mixed",
          "local_name": "Motor Pack",
          "days": [
            "Mon",
            "Sun"
          ]
        }
      ]
    },
    {
      "name": "Afikpo South",
      "slug": "ebonyi-afikpo-south",
      "markets": [
        {
          "name": "Affia Ekenta, Afikpo South",
          "slug": "affia-ekenta-afikpo-south",
          "coordinates": {
            "lat": 5.749938333,
            "lng": 7.847418333
          },
          "added_by": "GRID3 (tosin.williams)",
          "frequency": "Weekly",
          "type": "Food Stuff",
          "local_name": "Ezi Ekenta",
          "days": [
            "Mon",
            "Tue",
            "Wed",
            "Thu",
            "Fri",
            "Sat",
            "Sun"
          ]
        },
        {
          "name": "Affia Etiti Amoba Market, Afikpo South",
          "slug": "affia-etiti-amoba-market-afikpo-south",
          "coordinates": {
            "lat": 5.793428333,
            "lng": 7.829056667
          },
          "added_by": "GRID3 (racheal.olarewaju)",
          "frequency": "Bi-Weekly",
          "type": "Food Stuff",
          "local_name": "Amaoba",
          "days": [
            "Sun"
          ]
        },
        {
          "name": "Affia Ogo, Afikpo South",
          "slug": "affia-ogo-afikpo-south",
          "coordinates": {
            "lat": 5.86666,
            "lng": 7.812461667
          },
          "added_by": "GRID3 (racheal.olarewaju)",
          "frequency": "Other",
          "type": "Food Stuff",
          "local_name": "Ndi Alu",
          "days": [
            "Mon",
            "Tue",
            "Wed",
            "Thu",
            "Fri",
            "Sat",
            "Sun"
          ]
        },
        {
          "name": "Affia Orie Ebuwana, Afikpo South",
          "slug": "affia-orie-ebuwana-afikpo-south",
          "coordinates": {
            "lat": 5.791246667,
            "lng": 7.873473333
          },
          "added_by": "GRID3 (racheal.olarewaju)",
          "frequency": "Bi-Weekly",
          "type": "Mixed",
          "local_name": "Ebuwana General Market Ameke",
          "days": [
            "Mon",
            "Sun"
          ]
        },
        {
          "name": "Afia Afo Market, Afikpo South",
          "slug": "afia-afo-market-afikpo-south",
          "coordinates": {
            "lat": 5.811291667,
            "lng": 7.853191667
          },
          "added_by": "GRID3 (racheal.olarewaju)",
          "frequency": "Bi-Weekly",
          "type": "Mixed",
          "local_name": "Owutu",
          "days": [
            "Mon",
            "Tue",
            "Wed",
            "Thu",
            "Fri",
            "Sat",
            "Sun"
          ]
        },
        {
          "name": "Afia Ogo 1, Afikpo South",
          "slug": "afia-ogo-1-afikpo-south",
          "coordinates": {
            "lat": 5.833001667,
            "lng": 7.84598
          },
          "added_by": "GRID3 (racheal.olarewaju)",
          "frequency": "Monthly",
          "type": "Food Stuff",
          "local_name": "Ufueseni",
          "days": [
            "Mon",
            "Tue",
            "Wed",
            "Thu",
            "Fri",
            "Sat",
            "Sun"
          ]
        },
        {
          "name": "Afia Ogo 2, Afikpo South",
          "slug": "afia-ogo-2-afikpo-south",
          "coordinates": {
            "lat": 5.837148333,
            "lng": 7.870431667
          },
          "added_by": "GRID3 (racheal.olarewaju)",
          "frequency": "Bi-Weekly",
          "type": "Food Stuff",
          "local_name": "Asaga",
          "days": [
            "Sun"
          ]
        },
        {
          "name": "Afia Ogo Amaigbo Market, Afikpo South",
          "slug": "afia-ogo-amaigbo-market-afikpo-south",
          "coordinates": {
            "lat": 5.79229,
            "lng": 7.83581
          },
          "added_by": "GRID3 (racheal.olarewaju)",
          "local_name": "Afia Ogo Amaigbo"
        },
        {
          "name": "Afie Eke Oso, Afikpo South",
          "slug": "afie-eke-oso-afikpo-south",
          "coordinates": {
            "lat": 5.869916667,
            "lng": 7.814528333
          },
          "added_by": "GRID3 (racheal.olarewaju)",
          "frequency": "Weekly",
          "type": "Mixed",
          "local_name": "No1 Junction",
          "days": [
            "Mon",
            "Tue",
            "Wed",
            "Thu",
            "Fri",
            "Sat",
            "Sun"
          ]
        },
        {
          "name": "Afor Market Asaga, Afikpo South",
          "slug": "afor-market-asaga-afikpo-south",
          "coordinates": {
            "lat": 5.81174,
            "lng": 7.85411
          },
          "added_by": "GRID3 (racheal.olarewaju)",
          "local_name": "Afor Asaga"
        },
        {
          "name": "Ahia Nkwo Enohia, Afikpo South",
          "slug": "ahia-nkwo-enohia-afikpo-south",
          "coordinates": {
            "lat": 5.832383333,
            "lng": 7.925065
          },
          "added_by": "GRID3 (racheal.olarewaju)",
          "frequency": "Other",
          "type": "Mixed",
          "local_name": "Ezi Ogbuu",
          "days": [
            "Mon",
            "Tue",
            "Wed",
            "Thu",
            "Fri",
            "Sat",
            "Sun"
          ]
        },
        {
          "name": "Ahia Ogo Ndeucheuro Market, Afikpo South",
          "slug": "ahia-ogo-ndeucheuro-market-afikpo-south",
          "coordinates": {
            "lat": 5.82313,
            "lng": 7.92903
          },
          "added_by": "GRID3 (racheal.olarewaju)",
          "local_name": "Ahia Ogo Ndeucheuro"
        },
        {
          "name": "Amaeta Market Square, Afikpo South",
          "slug": "amaeta-market-square-afikpo-south",
          "coordinates": {
            "lat": 5.91515,
            "lng": 7.78394
          },
          "added_by": "GRID3 (tosin.williams)",
          "local_name": "Amaeta Square"
        },
        {
          "name": "Amaeta Market, Afikpo South",
          "slug": "amaeta-market-afikpo-south",
          "coordinates": {
            "lat": 5.915233333,
            "lng": 7.783993333
          },
          "added_by": "GRID3 (tosin.williams)",
          "frequency": "Other",
          "type": "Food Stuff",
          "local_name": "Ezi Elijah",
          "days": [
            "Mon",
            "Tue",
            "Wed",
            "Thu",
            "Fri",
            "Sat",
            "Sun"
          ]
        },
        {
          "name": "Eke Amagwu Market, Afikpo South",
          "slug": "eke-amagwu-market-afikpo-south",
          "coordinates": {
            "lat": 5.843811667,
            "lng": 7.861645
          },
          "added_by": "GRID3 (racheal.olarewaju)",
          "frequency": "Weekly",
          "type": "Mixed",
          "local_name": "Amangwu",
          "days": [
            "Mon",
            "Tue",
            "Fri",
            "Sun"
          ]
        },
        {
          "name": "Eke Amaoba Market, Afikpo South",
          "slug": "eke-amaoba-market-afikpo-south",
          "coordinates": {
            "lat": 5.79357,
            "lng": 7.82906
          },
          "added_by": "GRID3 (racheal.olarewaju)",
          "local_name": "Eke Amaoba"
        },
        {
          "name": "Eke Itim Market, Afikpo South",
          "slug": "eke-itim-market-afikpo-south",
          "coordinates": {
            "lat": 5.798341667,
            "lng": 7.855953333
          },
          "added_by": "GRID3 (racheal.olarewaju)",
          "frequency": "Bi-Weekly",
          "type": "Mixed",
          "local_name": "Itim",
          "days": [
            "Sun"
          ]
        },
        {
          "name": "Eke Market Oso Edda, Afikpo South",
          "slug": "eke-market-oso-edda-afikpo-south",
          "coordinates": {
            "lat": 5.86726,
            "lng": 7.81459
          },
          "added_by": "GRID3 (racheal.olarewaju)",
          "local_name": "Eke Oso Edda"
        },
        {
          "name": "Eke Nta Market, Afikpo South",
          "slug": "eke-nta-market-afikpo-south",
          "coordinates": {
            "lat": 5.79064,
            "lng": 7.837906667
          },
          "added_by": "GRID3 (racheal.olarewaju)",
          "frequency": "Bi-Weekly",
          "type": "Food Stuff",
          "local_name": "Ameke Ekoli Community",
          "days": [
            "Sun"
          ]
        },
        {
          "name": "Eziokpo Market Square, Afikpo South",
          "slug": "eziokpo-market-square-afikpo-south",
          "coordinates": {
            "lat": 5.83146,
            "lng": 7.9272
          },
          "added_by": "GRID3 (racheal.olarewaju)",
          "local_name": "Eziokpo Square"
        },
        {
          "name": "Libolo Community Market, Afikpo South",
          "slug": "libolo-community-market-afikpo-south",
          "coordinates": {
            "lat": 5.751451667,
            "lng": 7.855056667
          },
          "added_by": "GRID3 (tosin.williams)",
          "frequency": "Other",
          "type": "Food Stuff",
          "local_name": "Amaoji",
          "days": [
            "Mon",
            "Sun"
          ]
        },
        {
          "name": "Oguma, Afikpo South",
          "slug": "oguma-afikpo-south",
          "coordinates": {
            "lat": 5.760023333,
            "lng": 7.816798333
          },
          "added_by": "GRID3 (tosin.williams)",
          "frequency": "Weekly",
          "type": "Food Stuff",
          "local_name": "Ifuogo",
          "days": [
            "Mon",
            "Tue",
            "Wed",
            "Thu",
            "Fri",
            "Sat",
            "Sun"
          ]
        },
        {
          "name": "Okpo Market, Afikpo South",
          "slug": "okpo-market-afikpo-south",
          "coordinates": {
            "lat": 5.756118333,
            "lng": 7.847213333
          },
          "added_by": "GRID3 (tosin.williams)",
          "frequency": "Weekly",
          "type": "Food Stuff",
          "local_name": "Ameke",
          "days": [
            "Mon",
            "Sun"
          ]
        },
        {
          "name": "Orie Market Court Area, Afikpo South",
          "slug": "orie-market-court-area-afikpo-south",
          "coordinates": {
            "lat": 5.759868333,
            "lng": 7.817368333
          },
          "added_by": "GRID3 (tosin.williams)",
          "frequency": "Bi-Weekly",
          "type": "Mixed",
          "local_name": "Court Area",
          "days": [
            "Mon",
            "Sun"
          ]
        },
        {
          "name": "Orie Market Ogbu, Afikpo South",
          "slug": "orie-market-ogbu-afikpo-south",
          "coordinates": {
            "lat": 5.818376667,
            "lng": 7.908326667
          },
          "added_by": "GRID3 (racheal.olarewaju)",
          "frequency": "Bi-Weekly",
          "type": "Food Stuff",
          "local_name": "Ogbu",
          "days": [
            "Sun"
          ]
        },
        {
          "name": "Owutu Edda Market, Afikpo South",
          "slug": "owutu-edda-market-afikpo-south",
          "coordinates": {
            "lat": 5.81108,
            "lng": 7.852725
          },
          "added_by": "GRID3 (racheal.olarewaju)",
          "frequency": "Weekly",
          "type": "Mixed",
          "local_name": "Owutu Edda",
          "days": [
            "Mon",
            "Tue",
            "Wed",
            "Thu",
            "Fri",
            "Sat",
            "Sun"
          ]
        },
        {
          "name": "Owutu Market, Afikpo South",
          "slug": "owutu-market-afikpo-south",
          "coordinates": {
            "lat": 5.813946667,
            "lng": 7.855118333
          },
          "added_by": "GRID3 (racheal.olarewaju)",
          "frequency": "Bi-Weekly",
          "type": "Food Stuff",
          "local_name": "Owutu Edda",
          "days": [
            "Mon",
            "Tue",
            "Wed",
            "Thu",
            "Fri",
            "Sat",
            "Sun"
          ]
        },
        {
          "name": "Ugwuma Biri, Afikpo South",
          "slug": "ugwuma-biri-afikpo-south",
          "coordinates": {
            "lat": 5.813018333,
            "lng": 7.824445
          },
          "added_by": "GRID3 (racheal.olarewaju)",
          "frequency": "Weekly",
          "type": "Food Stuff",
          "local_name": "Ezi Ukwu Ndiba",
          "days": [
            "Mon",
            "Tue",
            "Wed",
            "Thu",
            "Fri",
            "Sat",
            "Sun"
          ]
        }
      ]
    },
    {
      "name": "Ebonyi",
      "slug": "ebonyi-ebonyi",
      "markets": [
        {
          "name": "Abakpa Main Market Abakaliki, Ebonyi",
          "slug": "abakpa-main-market-abakaliki-ebonyi",
          "coordinates": {
            "lat": 6.322758333,
            "lng": 8.112946667
          },
          "added_by": "GRID3 (racheal.olarewaju)",
          "local_name": "Abakpa"
        },
        {
          "name": "Abakpa Main Market, Ebonyi",
          "slug": "abakpa-main-market-ebonyi",
          "coordinates": {
            "lat": 6.3225,
            "lng": 8.11225
          },
          "added_by": "GRID3 (racheal.olarewaju)",
          "local_name": "Abakpa Main"
        },
        {
          "name": "Abarigwe Market, Ebonyi",
          "slug": "abarigwe-market-ebonyi",
          "coordinates": {
            "lat": 6.66721,
            "lng": 8.177495
          },
          "added_by": "GRID3 (racheal.olarewaju)",
          "frequency": "Weekly",
          "type": "Mixed",
          "local_name": "Abarigwe",
          "days": [
            "Sun"
          ]
        },
        {
          "name": "Abofia Market 1, Ebonyi",
          "slug": "abofia-market-1-ebonyi",
          "coordinates": {
            "lat": 6.3375,
            "lng": 8.1205683
          },
          "added_by": "GRID3 (racheal.olarewaju)",
          "frequency": "Weekly",
          "type": "Food Stuff",
          "local_name": "Abofia",
          "days": [
            "Mon",
            "Tue",
            "Wed",
            "Thu",
            "Fri",
            "Sat",
            "Sun"
          ]
        },
        {
          "name": "Abofia Market 2, Ebonyi",
          "slug": "abofia-market-2-ebonyi",
          "coordinates": {
            "lat": 6.337605,
            "lng": 8.120443333
          },
          "added_by": "GRID3 (racheal.olarewaju)",
          "local_name": "Abofia 2"
        },
        {
          "name": "Achara Enyibichiri Market, Ebonyi",
          "slug": "achara-enyibichiri-market-ebonyi",
          "coordinates": {
            "lat": 6.512085,
            "lng": 8.1427
          },
          "added_by": "GRID3 (racheal.olarewaju)",
          "frequency": "Weekly",
          "type": "Clothing",
          "local_name": "Enyibichiri",
          "days": [
            "Sun"
          ]
        },
        {
          "name": "Afia Borehole Amuda, Ebonyi",
          "slug": "afia-borehole-amuda-ebonyi",
          "coordinates": {
            "lat": 6.575298714,
            "lng": 8.124009609
          },
          "added_by": "GRID3 (racheal.olarewaju)",
          "frequency": "Other",
          "type": "Mixed",
          "local_name": "Amuda Ndiechi",
          "days": [
            "Mon",
            "Tue",
            "Wed",
            "Thu",
            "Fri",
            "Sat",
            "Sun"
          ]
        },
        {
          "name": "Afia Ojii Obegu Oduma Azuojii Market, Ebonyi",
          "slug": "afia-ojii-obegu-oduma-azuojii-market-ebonyi",
          "coordinates": {
            "lat": 6.567298333,
            "lng": 8.122608333
          },
          "added_by": "GRID3 (racheal.olarewaju)",
          "frequency": "Bi-Weekly",
          "type": "Mixed",
          "local_name": "Obegu Oduma",
          "days": [
            "Sun"
          ]
        },
        {
          "name": "Agbaja Market Village, Ebonyi",
          "slug": "agbaja-market-village-ebonyi",
          "coordinates": {
            "lat": 6.337753333,
            "lng": 8.12025
          },
          "added_by": "GRID3 (racheal.olarewaju)",
          "frequency": "Other",
          "type": "Food Stuff",
          "local_name": "Hilltop",
          "days": [
            "Mon",
            "Tue",
            "Wed",
            "Thu",
            "Fri",
            "Sat",
            "Sun"
          ]
        },
        {
          "name": "Aghamehu Market Junction, Ebonyi",
          "slug": "aghamehu-market-junction-ebonyi",
          "coordinates": {
            "lat": 6.4044,
            "lng": 8.1396783
          },
          "added_by": "GRID3 (racheal.olarewaju)",
          "frequency": "Other",
          "type": "Food Stuff",
          "local_name": "Aghamehu",
          "days": [
            "Mon",
            "Tue",
            "Fri",
            "Sun"
          ]
        },
        {
          "name": "Aghamehu Market, Ebonyi",
          "slug": "aghamehu-market-ebonyi",
          "coordinates": {
            "lat": 6.3961867,
            "lng": 8.13992
          },
          "added_by": "GRID3 (racheal.olarewaju)",
          "frequency": "Weekly",
          "type": "Food Stuff",
          "local_name": "Aghamehu",
          "days": [
            "Mon",
            "Tue",
            "Fri",
            "Sun"
          ]
        },
        {
          "name": "Azu Achi Market, Ebonyi",
          "slug": "azu-achi-market-ebonyi",
          "coordinates": {
            "lat": 6.529766667,
            "lng": 8.112665
          },
          "added_by": "GRID3 (racheal.olarewaju)",
          "frequency": "Weekly",
          "type": "Mixed",
          "local_name": "Ochakwu",
          "days": [
            "Mon",
            "Tue",
            "Fri",
            "Sun"
          ]
        },
        {
          "name": "Cattle Market, Ebonyi",
          "slug": "cattle-market-ebonyi",
          "coordinates": {
            "lat": 6.320366667,
            "lng": 8.108958333
          },
          "added_by": "GRID3 (racheal.olarewaju)",
          "frequency": "Weekly",
          "type": "Livestock",
          "local_name": "Ogoja Road",
          "days": [
            "Mon",
            "Tue",
            "Wed",
            "Thu",
            "Fri",
            "Sat",
            "Sun"
          ]
        },
        {
          "name": "Clothes Market, Ebonyi",
          "slug": "clothes-market-ebonyi",
          "coordinates": {
            "lat": 6.318668333,
            "lng": 8.112336667
          },
          "added_by": "GRID3 (racheal.olarewaju)",
          "frequency": "Weekly",
          "type": "Clothing",
          "local_name": "Ogoja Road",
          "days": [
            "Mon",
            "Tue",
            "Fri",
            "Sun"
          ]
        },
        {
          "name": "Ebebe Market Mege Ogbaga Road, Ebonyi",
          "slug": "ebebe-market-mege-ogbaga-road-ebonyi",
          "coordinates": {
            "lat": 6.34277,
            "lng": 8.10562
          },
          "added_by": "GRID3 (racheal.olarewaju)",
          "local_name": "Ebebe Mege-ogbaga Road"
        },
        {
          "name": "Ebeebe Junction Market, Ebonyi",
          "slug": "ebeebe-junction-market-ebonyi",
          "coordinates": {
            "lat": 6.3427683,
            "lng": 8.10572
          },
          "added_by": "GRID3 (racheal.olarewaju)",
          "frequency": "Other",
          "type": "Mixed",
          "local_name": "Amike Aba",
          "days": [
            "Mon",
            "Tue",
            "Wed",
            "Thu",
            "Fri",
            "Sat",
            "Sun"
          ]
        },
        {
          "name": "Echialike Market, Ebonyi",
          "slug": "echialike-market-ebonyi",
          "coordinates": {
            "lat": 6.339011667,
            "lng": 8.121743333
          },
          "added_by": "GRID3 (racheal.olarewaju)",
          "frequency": "Weekly",
          "type": "Food Stuff",
          "local_name": "Echialike Market",
          "days": [
            "Sun"
          ]
        },
        {
          "name": "Ekerigwe Market Square, Ebonyi",
          "slug": "ekerigwe-market-square-ebonyi",
          "coordinates": {
            "lat": 6.69098,
            "lng": 8.16393
          },
          "added_by": "GRID3 (racheal.olarewaju)",
          "local_name": "Ekerigwe Square"
        },
        {
          "name": "Enwuagba Junction Market, Ebonyi",
          "slug": "enwuagba-junction-market-ebonyi",
          "coordinates": {
            "lat": 6.4660683,
            "lng": 8.1057267
          },
          "added_by": "GRID3 (racheal.olarewaju)",
          "frequency": "Other",
          "type": "Mixed",
          "local_name": "Enwuagba",
          "days": [
            "Mon",
            "Tue",
            "Wed",
            "Thu",
            "Fri",
            "Sat",
            "Sun"
          ]
        },
        {
          "name": "Enyibichiri Market, Ebonyi",
          "slug": "enyibichiri-market-ebonyi",
          "coordinates": {
            "lat": 6.390541667,
            "lng": 8.097358333
          },
          "added_by": "GRID3 (racheal.olarewaju)",
          "frequency": "Weekly",
          "type": "Food Stuff",
          "local_name": "Enyibichiri",
          "days": [
            "Sun"
          ]
        },
        {
          "name": "Hossana Market Hossana Street Abakaliki, Ebonyi",
          "slug": "hossana-market-hossana-street-abakaliki-ebonyi",
          "coordinates": {
            "lat": 6.321318333,
            "lng": 8.113338333
          },
          "added_by": "GRID3 (racheal.olarewaju)",
          "local_name": "Hossana Hossana Street Abakaliki"
        },
        {
          "name": "Iboko Abarigwe Market, Ebonyi",
          "slug": "iboko-abarigwe-market-ebonyi",
          "coordinates": {
            "lat": 6.48667,
            "lng": 8.11073
          },
          "added_by": "GRID3 (racheal.olarewaju)",
          "local_name": "Iboko Abarigwe"
        },
        {
          "name": "Iboko Achi Marekt Square, Ebonyi",
          "slug": "iboko-achi-marekt-square-ebonyi",
          "coordinates": {
            "lat": 6.62279,
            "lng": 8.10656
          },
          "added_by": "GRID3 (racheal.olarewaju)",
          "local_name": "Iboko Achi Marekt Square"
        },
        {
          "name": "Iboko Ekirigwe, Ebonyi",
          "slug": "iboko-ekirigwe-ebonyi",
          "coordinates": {
            "lat": 6.6911483,
            "lng": 8.1637383
          },
          "added_by": "GRID3 (racheal.olarewaju)",
          "frequency": "Bi-Weekly",
          "type": "Mixed",
          "local_name": "Ekirigwe",
          "days": [
            "Sun"
          ]
        },
        {
          "name": "Iboko Iga Market, Ebonyi",
          "slug": "iboko-iga-market-ebonyi",
          "coordinates": {
            "lat": 6.6901,
            "lng": 8.1407683
          },
          "added_by": "GRID3 (racheal.olarewaju)",
          "frequency": "Weekly",
          "type": "Food Stuff",
          "local_name": "Omaiga",
          "days": [
            "Mon",
            "Tue",
            "Fri",
            "Sun"
          ]
        },
        {
          "name": "Iboko Nkoroma Market, Ebonyi",
          "slug": "iboko-nkoroma-market-ebonyi",
          "coordinates": {
            "lat": 6.54874,
            "lng": 8.13632
          },
          "added_by": "GRID3 (racheal.olarewaju)",
          "local_name": "Iboko Nkoroma"
        },
        {
          "name": "Ime Ochakwu Market Square, Ebonyi",
          "slug": "ime-ochakwu-market-square-ebonyi",
          "coordinates": {
            "lat": 6.535251667,
            "lng": 8.106926667
          },
          "added_by": "GRID3 (racheal.olarewaju)",
          "frequency": "Weekly",
          "type": "Clothing",
          "local_name": "Ochakwu",
          "days": [
            "Mon",
            "Tue",
            "Fri",
            "Sun"
          ]
        },
        {
          "name": "Iziogo Ede Market, Ebonyi",
          "slug": "iziogo-ede-market-ebonyi",
          "coordinates": {
            "lat": 6.700895,
            "lng": 8.14825
          },
          "added_by": "GRID3 (racheal.olarewaju)",
          "frequency": "Weekly",
          "type": "Food Stuff",
          "local_name": "Ede",
          "days": [
            "Mon",
            "Tue",
            "Fri",
            "Sun"
          ]
        },
        {
          "name": "Iziogo Market Square Ede, Ebonyi",
          "slug": "iziogo-market-square-ede-ebonyi",
          "coordinates": {
            "lat": 6.70084,
            "lng": 8.14814
          },
          "added_by": "GRID3 (racheal.olarewaju)",
          "local_name": "Iziogo Square Ede"
        },
        {
          "name": "Iziogo Ndiawoke, Ebonyi",
          "slug": "iziogo-ndiawoke-ebonyi",
          "coordinates": {
            "lat": 6.71968,
            "lng": 8.1751
          },
          "added_by": "GRID3 (racheal.olarewaju)",
          "frequency": "Weekly",
          "type": "Food Stuff",
          "local_name": "Ndiawoke",
          "days": [
            "Mon",
            "Tue",
            "Fri",
            "Sun"
          ]
        },
        {
          "name": "Junction Ojienyia Agbaja Market, Ebonyi",
          "slug": "junction-ojienyia-agbaja-market-ebonyi",
          "coordinates": {
            "lat": 6.497188333,
            "lng": 8.153355
          },
          "added_by": "GRID3 (racheal.olarewaju)",
          "frequency": "Weekly",
          "type": "Food Stuff",
          "local_name": "Ojienyia",
          "days": [
            "Sun"
          ]
        },
        {
          "name": "Kpiri Kpiri Market, Ebonyi",
          "slug": "kpiri-kpiri-market-ebonyi",
          "coordinates": {
            "lat": 6.337551667,
            "lng": 8.100771667
          },
          "added_by": "GRID3 (racheal.olarewaju)",
          "frequency": "Weekly",
          "type": "Mixed",
          "local_name": "Ogbaga",
          "days": [
            "Mon",
            "Tue",
            "Wed",
            "Thu",
            "Fri",
            "Sat",
            "Sun"
          ]
        },
        {
          "name": "Kpirikpiri Market Abakaliki Saint Patricks Road Old Enugu Abakaliki, Ebonyi",
          "slug": "kpirikpiri-market-abakaliki-saint-patricks-road-old-enugu-abakaliki-ebonyi",
          "coordinates": {
            "lat": 6.337418333,
            "lng": 8.09917
          },
          "added_by": "GRID3 (racheal.olarewaju)",
          "local_name": "Kpirikpiri Abakaliki Saint Patrick's Road Old Enugu Abakaliki"
        },
        {
          "name": "Livestock Market New Layout, Ebonyi",
          "slug": "livestock-market-new-layout-ebonyi",
          "coordinates": {
            "lat": 6.328375,
            "lng": 8.11495
          },
          "added_by": "GRID3 (racheal.olarewaju)",
          "local_name": "Livestock New Layout"
        },
        {
          "name": "Mbukobe Market Abakaliki, Ebonyi",
          "slug": "mbukobe-market-abakaliki-ebonyi",
          "coordinates": {
            "lat": 6.335435,
            "lng": 8.0864633
          },
          "added_by": "GRID3 (racheal.olarewaju)",
          "local_name": "Mbukobe Abakaliki"
        },
        {
          "name": "Meat Market, Ebonyi",
          "slug": "meat-market-ebonyi",
          "coordinates": {
            "lat": 6.32173,
            "lng": 8.114176667
          },
          "added_by": "GRID3 (racheal.olarewaju)",
          "frequency": "Weekly",
          "type": "Mixed",
          "local_name": "Gunning Road",
          "days": [
            "Mon",
            "Tue",
            "Wed",
            "Thu",
            "Fri",
            "Sat",
            "Sun"
          ]
        },
        {
          "name": "Ndiebor Market, Ebonyi",
          "slug": "ndiebor-market-ebonyi",
          "coordinates": {
            "lat": 6.349811667,
            "lng": 8.058925
          },
          "added_by": "GRID3 (racheal.olarewaju)",
          "frequency": "Weekly",
          "type": "Food Stuff",
          "local_name": "Ndiebor Ofoke",
          "days": [
            "Sun"
          ]
        },
        {
          "name": "Ndiefi Market Square, Ebonyi",
          "slug": "ndiefi-market-square-ebonyi",
          "coordinates": {
            "lat": 6.585576667,
            "lng": 8.09844
          },
          "added_by": "GRID3 (racheal.olarewaju)",
          "frequency": "Weekly",
          "type": "Mixed",
          "local_name": "Ndiefi",
          "days": [
            "Mon",
            "Tue",
            "Wed",
            "Thu",
            "Fri",
            "Sat",
            "Sun"
          ]
        },
        {
          "name": "Ndiefi Udoka Marekt, Ebonyi",
          "slug": "ndiefi-udoka-marekt-ebonyi",
          "coordinates": {
            "lat": 6.57361,
            "lng": 8.0978
          },
          "added_by": "GRID3 (racheal.olarewaju)",
          "local_name": "Ndiefi Udoka Marekt"
        },
        {
          "name": "Ndiefi Udoka Market, Ebonyi",
          "slug": "ndiefi-udoka-market-ebonyi",
          "coordinates": {
            "lat": 6.573361667,
            "lng": 8.097938333
          },
          "added_by": "GRID3 (racheal.olarewaju)",
          "frequency": "Weekly",
          "type": "Mixed",
          "local_name": "Ndiefi",
          "days": [
            "Mon",
            "Tue",
            "Fri",
            "Sun"
          ]
        },
        {
          "name": "Ndienyi Market Square, Ebonyi",
          "slug": "ndienyi-market-square-ebonyi",
          "coordinates": {
            "lat": 6.66647,
            "lng": 8.18803
          },
          "added_by": "GRID3 (racheal.olarewaju)",
          "local_name": "Ndienyi Square"
        },
        {
          "name": "Ndiofi Market, Ebonyi",
          "slug": "ndiofi-market-ebonyi",
          "coordinates": {
            "lat": 6.337995,
            "lng": 8.120685
          },
          "added_by": "GRID3 (racheal.olarewaju)",
          "frequency": "Weekly",
          "type": "Food Stuff",
          "local_name": "Imeoffia Village",
          "days": [
            "Sun"
          ]
        },
        {
          "name": "Ndiofia Market, Ebonyi",
          "slug": "ndiofia-market-ebonyi",
          "coordinates": {
            "lat": 6.52749,
            "lng": 8.136635
          },
          "added_by": "GRID3 (racheal.olarewaju)",
          "frequency": "Weekly",
          "type": "Food Stuff",
          "local_name": "Ndiofia Market",
          "days": [
            "Sun"
          ]
        },
        {
          "name": "Ndukabi Market, Ebonyi",
          "slug": "ndukabi-market-ebonyi",
          "coordinates": {
            "lat": 6.397168333,
            "lng": 8.0917
          },
          "added_by": "GRID3 (racheal.olarewaju)",
          "frequency": "Weekly",
          "type": "Food Stuff",
          "local_name": "Ndukabi",
          "days": [
            "Sun"
          ]
        },
        {
          "name": "Nduochigbo Nkaleke Achara, Ebonyi",
          "slug": "nduochigbo-nkaleke-achara-ebonyi",
          "coordinates": {
            "lat": 6.482765,
            "lng": 8.1278217
          },
          "added_by": "GRID3 (racheal.olarewaju)",
          "frequency": "Other",
          "type": "Mixed",
          "local_name": "Nkaleke Achara",
          "days": [
            "Mon",
            "Tue",
            "Wed",
            "Thu",
            "Fri",
            "Sat",
            "Sun"
          ]
        },
        {
          "name": "New Bar Market, Ebonyi",
          "slug": "new-bar-market-ebonyi",
          "coordinates": {
            "lat": 6.443,
            "lng": 8.0569
          },
          "added_by": "GRID3 (tosin.williams)",
          "local_name": "New Bar"
        },
        {
          "name": "New Layout Market, Ebonyi",
          "slug": "new-layout-market-ebonyi",
          "coordinates": {
            "lat": 6.327958333,
            "lng": 8.114906667
          },