{
  "name": "Lagos",
  "slug": "lagos",
  "lgas": [
    {
      "name": "Agege",
      "slug": "lagos-agege",
      "markets": [
        {
          "name": "Abiola Market, Agege",
          "slug": "abiola-market-agege",
          "coordinates": {
            "lat": 6.62105,
            "lng": 3.32531
          },
          "added_by": "GRID3 (racheal.olarewaju)",
          "local_name": "Abiola"
        },
        {
          "name": "Agege Market",
          "slug": "agege-market",
          "coordinates": {
            "lat": 6.623211667,
            "lng": 3.321408333
          },
          "added_by": "GRID3 (kevin.ukueku)",
          "frequency": "Other",
          "type": "Clothing Livestock Electronic Spare Parts Food Stuff Mixed",
          "local_name": "Ap agege",
          "days": [
            "Mon",
            "Tue",
            "Wed",
            "Thu",
            "Fri",
            "Sat",
            "Sun"
          ]
        },
        {
          "name": "Ashade Market, Agege",
          "slug": "ashade-market-agege",
          "coordinates": {
            "lat": 6.61366261,
            "lng": 3.32958347
          },
          "added_by": "GRID3 (kevin.ukueku)",
          "frequency": "Other",
          "type": "Clothing Livestock Electronic Spare Parts Food Stuff Mixed",
          "local_name": "Akanni Doherty",
          "days": [
            "Mon",
            "Tue",
            "Wed",
            "Thu",
            "Fri",
            "Sat"
          ]
        },
        {
          "name": "Dopemu Market, Agege",
          "slug": "dopemu-market-agege",
          "coordinates": {
            "lat": 6.61204,
            "lng": 3.31128
          },
          "added_by": "GRID3 (racheal.olarewaju)",
          "local_name": "Dopemu"
        },
        {
          "name": "Isale Oja Market, Agege",
          "slug": "isale-oja-market-agege",
          "coordinates": {
            "lat": 6.61969,
            "lng": 3.32565
          },
          "added_by": "GRID3 (racheal.olarewaju)",
          "local_name": "Isale Oja"
        },
        {
          "name": "Jakande Market, Agege",
          "slug": "jakande-market-agege",
          "coordinates": {
            "lat": 6.62835,
            "lng": 3.324908333
          },
          "added_by": "GRID3 (kevin.ukueku)",
          "frequency": "Bi-Weekly",
          "type": "Clothing Food Stuff Mixed",
          "local_name": "Beach road",
          "days": [
            "Mon",
            "Tue",
            "Wed",
            "Thu",
            "Fri",
            "Sat",
            "Sun"
          ]
        },
        {
          "name": "Mangoro Market, Agege",
          "slug": "mangoro-market-agege",
          "coordinates": {
            "lat": 6.609198333,
            "lng": 3.327348333
          },
          "added_by": "GRID3 (kevin.ukueku)",
          "frequency": "Other",
          "type": "Livestock Food Stuff Mixed",
          "local_name": "Adegbola street",
          "days": [
            "Mon",
            "Tue",
            "Wed",
            "Thu",
            "Fri",
            "Sat"
          ]
        },
        {
          "name": "Moshood Abiola Modern Market, Agege",
          "slug": "moshood-abiola-modern-market-agege",
          "coordinates": {
            "lat": 6.621071667,
            "lng": 3.329383333
          },
          "added_by": "GRID3 (kevin.ukueku)",
          "frequency": "Other",
          "type": "Clothing Food Stuff Mixed",
          "local_name": "Old Ogba road",
          "days": [
            "Mon",
            "Tue",
            "Wed",
            "Thu",
            "Fri",
            "Sat"
          ]
        },
        {
          "name": "Oba Ogunji Market, Agege",
          "slug": "oba-ogunji-market-agege",
          "coordinates": {
            "lat": 6.62267,
            "lng": 3.32546
          },
          "added_by": "GRID3 (racheal.olarewaju)",
          "local_name": "Oba Ogunji"
        },
        {
          "name": "Oja Oba Market, Agege",
          "slug": "oja-oba-market-agege",
          "coordinates": {
            "lat": 6.645993333,
            "lng": 3.306468333
          },
          "added_by": "GRID3 (kevin.ukueku)",
          "frequency": "Other",
          "type": "Clothing Livestock Electronic Spare Parts Food Stuff Mixed",
          "local_name": "Oja oba",
          "days": [
            "Mon",
            "Tue",
            "Wed",
            "Thu",
            "Fri",
            "Sat"
          ]
        },
        {
          "name": "Orile Agege Market",
          "slug": "orile-agege-market",
          "coordinates": {
            "lat": 6.62969,
            "lng": 3.31032
          },
          "added_by": "GRID3 (racheal.olarewaju)",
          "local_name": "Orile Agege"
        },
        {
          "name": "Papa Nku Market, Agege",
          "slug": "papa-nku-market-agege",
          "coordinates": {
            "lat": 6.621787335,
            "lng": 3.322598811
          },
          "added_by": "GRID3 (racheal.olarewaju)",
          "local_name": "Papa Nku"
        }
      ]
    },
    {
      "name": "Ajeromi-Ifelodun",
      "slug": "lagos-ajeromi-ifelodun",
      "markets": [
        {
          "name": "Abule Layeni Market, Ajeromi-Ifelodun",
          "slug": "abule-layeni-market-ajeromi-ifelodun",
          "coordinates": {
            "lat": 6.45979,
            "lng": 3.33794
          },
          "added_by": "GRID3 (racheal.olarewaju)",
          "local_name": "Abule Layeni"
        },
        {
          "name": "Adeolu Market, Ajeromi-Ifelodun",
          "slug": "adeolu-market-ajeromi-ifelodun",
          "coordinates": {
            "lat": 6.444886581,
            "lng": 3.344418188
          },
          "added_by": "GRID3 (kevin.ukueku)",
          "frequency": "Weekly",
          "type": "Mixed",
          "local_name": "Olodi Apapa",
          "days": [
            "Mon",
            "Tue",
            "Wed",
            "Thu",
            "Fri",
            "Sat",
            "Sun"
          ]
        },
        {
          "name": "Alaba Market 334, Ajeromi-Ifelodun",
          "slug": "alaba-market-334-ajeromi-ifelodun",
          "coordinates": {
            "lat": 6.464679492,
            "lng": 3.32660737
          },
          "added_by": "GRID3 (kevin.ukueku)",
          "frequency": "Weekly",
          "type": "Clothing Livestock Electronic Spare Parts Food Stuff Mixed",
          "local_name": "Alaba Oro market",
          "days": [
            "Mon",
            "Tue",
            "Wed",
            "Thu",
            "Fri",
            "Sat"
          ]
        },
        {
          "name": "Alakoto Market, Ajeromi-Ifelodun",
          "slug": "alakoto-market",
          "coordinates": {
            "lat": 6.4713,
            "lng": 3.35
          },
          "added_by": "ahmad-cod"
        },
        {
          "name": "Alakoto Market, Ajeromi-Ifelodun",
          "slug": "alakoto-market-ajeromi-ifelodun",
          "coordinates": {
            "lat": 6.44584,
            "lng": 3.338696667
          },
          "added_by": "GRID3 (kevin.ukueku)",
          "frequency": "Weekly",
          "type": "Livestock Food Stuff",
          "local_name": "Olodi Apapa",
          "days": [
            "Mon",
            "Tue",
            "Wed",
            "Thu",
            "Fri",
            "Sat",
            "Sun"
          ]
        },
        {
          "name": "Amukoko Market, Ajeromi-Ifelodun",
          "slug": "amukoko-market-ajeromi-ifelodun",
          "coordinates": {
            "lat": 6.46669,
            "lng": 3.3457
          },
          "added_by": "GRID3 (racheal.olarewaju)",
          "local_name": "Amukoko"
        },
        {
          "name": "Awodi-Ora Market, Ajeromi-Ifelodun",
          "slug": "awodi-ora-market",
          "coordinates": {
            "lat": 6.4539,
            "lng": 3.3268
          },
          "added_by": "ahmad-cod"
        },
        {
          "name": "Awodiora Retail Market, Ajeromi-Ifelodun",
          "slug": "awodiora-retail-market-ajeromi-ifelodun",
          "coordinates": {
            "lat": 6.453241667,
            "lng": 3.327363333
          },
          "added_by": "GRID3 (kevin.ukueku)",
          "frequency": "Weekly",
          "type": "Mixed",
          "local_name": "Awodiora",
          "days": [
            "Mon",
            "Tue",
            "Wed",
            "Thu",
            "Fri",
            "Sat",
            "Sun"
          ]
        },
        {
          "name": "Boundary Market, Ajeromi-Ifelodun",
          "slug": "boundary-market",
          "coordinates": {
            "lat": 6.45459,
            "lng": 3.35176
          },
          "added_by": "ahmad-cod"
        },
        {
          "name": "Charles Avenue Suru Market, Ajeromi-Ifelodun",
          "slug": "charles-avenue-suru-market-ajeromi-ifelodun",
          "coordinates": {
            "lat": 6.461041579,
            "lng": 3.324041551
          },
          "added_by": "GRID3 (kevin.ukueku)",
          "frequency": "Weekly",
          "type": "Food Stuff",
          "local_name": "Suru Alaba",
          "days": [
            "Mon",
            "Tue",
            "Wed",
            "Thu",
            "Fri",
            "Sat"
          ]
        },
        {
          "name": "Coker Market, Ajeromi-Ifelodun",
          "slug": "coker-market-ajeromi-ifelodun",
          "coordinates": {
            "lat": 6.46924,
            "lng": 3.33202
          },
          "added_by": "GRID3 (racheal.olarewaju)",
          "local_name": "Coker"
        },
        {
          "name": "Ibafon Market, Ajeromi-Ifelodun",
          "slug": "ibafon-market",
          "coordinates": {
            "lat": 6.4408,
            "lng": 3.3268
          },
          "added_by": "ahmad-cod"
        },
        {
          "name": "Ibafon Market, Ajeromi-Ifelodun",
          "slug": "ibafon-market-ajeromi-ifelodun",
          "coordinates": {
            "lat": 6.4406,
            "lng": 3.33489
          },
          "added_by": "GRID3 (racheal.olarewaju)",
          "local_name": "Ibafon"
        },
        {
          "name": "Idewu Market, Ajeromi-Ifelodun",
          "slug": "idewu-market-ajeromi-ifelodun",
          "coordinates": {
            "lat": 6.446926667,
            "lng": 3.333748333
          },
          "added_by": "GRID3 (kevin.ukueku)",
          "frequency": "Weekly",
          "type": "Food Stuff",
          "local_name": "Olodi Apapa",
          "days": [
            "Mon",
            "Tue",
            "Wed",
            "Thu",
            "Fri",
            "Sat",
            "Sun"
          ]
        },
        {
          "name": "Ladipo Plank Market, Ajeromi-Ifelodun",
          "slug": "ladipo-plank-market-ajeromi-ifelodun",
          "coordinates": {
            "lat": 6.469560323,
            "lng": 3.350633233
          },
          "added_by": "GRID3 (kevin.ukueku)",
          "frequency": "Weekly",
          "type": "Other",
          "local_name": "Sari lganmu",
          "days": [
            "Mon",
            "Tue",
            "Wed",
            "Thu",
            "Fri",
            "Sat"
          ]
        },
        {
          "name": "Lawaco Plaza, Ajeromi-Ifelodun",
          "slug": "lawaco-plaza-ajeromi-ifelodun",
          "coordinates": {
            "lat": 6.467175,
            "lng": 3.350908333
          },
          "added_by": "GRID3 (kevin.ukueku)",
          "frequency": "Weekly",
          "type": "Clothing Electronic Spare Parts Food Stuff Mixed",
          "local_name": "Palaace market",
          "days": [
            "Mon",
            "Tue",
            "Wed",
            "Thu",
            "Fri",
            "Sat",
            "Sun"
          ]
        },
        {
          "name": "Layeni Market, Ajeromi-Ifelodun",
          "slug": "layeni-market-ajeromi-ifelodun",
          "coordinates": {
            "lat": 6.46203,
            "lng": 3.32358
          },
          "added_by": "GRID3 (racheal.olarewaju)",
          "local_name": "Layeni"
        },
        {
          "name": "Mammy Market, Ajeromi-Ifelodun",
          "slug": "mammy-market-ajeromi-ifelodun",
          "coordinates": {
            "lat": 6.46041,
            "lng": 3.3233
          },
          "added_by": "GRID3 (racheal.olarewaju)",
          "local_name": "Mammy"
        },
        {
          "name": "Mosafejo Market, Ajeromi-Ifelodun",
          "slug": "mosafejo-market-ajeromi-ifelodun",
          "coordinates": {
            "lat": 6.46656,
            "lng": 3.33821
          },
          "added_by": "GRID3 (racheal.olarewaju)",
          "local_name": "Mosafejo"
        },
        {
          "name": "Muritala Market, Ajeromi-Ifelodun",
          "slug": "muritala-market-ajeromi-ifelodun",
          "coordinates": {
            "lat": 6.467408651,
            "lng": 3.349869433
          },
          "added_by": "GRID3 (kevin.ukueku)",
          "frequency": "Weekly",
          "type": "Livestock Food Stuff Mixed",
          "local_name": "Sari iganmu road",
          "days": [
            "Mon",
            "Tue",
            "Wed",
            "Thu",
            "Fri",
            "Sat"
          ]
        },
        {
          "name": "Night Market, Ajeromi-Ifelodun",
          "slug": "night-market-ajeromi-ifelodun",
          "coordinates": {
            "lat": 6.45717,
            "lng": 3.34304
          },
          "added_by": "GRID3 (racheal.olarewaju)",
          "local_name": "Night"
        },
        {
          "name": "Odunade Market, Ajeromi-Ifelodun",
          "slug": "odunade-market-ajeromi-ifelodun",
          "coordinates": {
            "lat": 6.46806,
            "lng": 3.33055
          },
          "added_by": "GRID3 (racheal.olarewaju)",
          "local_name": "Odunade"
        },
        {
          "name": "Oke Oja Market, Ajeromi-Ifelodun",
          "slug": "oke-oja-market-ajeromi-ifelodun",
          "coordinates": {
            "lat": 6.46795543,
            "lng": 3.350479212
          },
          "added_by": "GRID3 (racheal.olarewaju)",
          "local_name": "Oke Oja"
        },
        {
          "name": "Olodi Apapa Market, Ajeromi-Ifelodun",
          "slug": "olodi-apapa-market-ajeromi-ifelodun",
          "coordinates": {
            "lat": 6.4477914,
            "lng": 3.348111391
          },
          "added_by": "GRID3 (kevin.ukueku)",
          "frequency": "Weekly",
          "type": "Mixed",
          "local_name": "Olodi Apapa",
          "days": [
            "Mon",
            "Tue",
            "Wed",
            "Thu",
            "Fri",
            "Sat",
            "Sun"
          ]
        },
        {
          "name": "Oluwa Shopping Mall, Ajeromi-Ifelodun",
          "slug": "oluwa-shopping-mall-ajeromi-ifelodun",
          "coordinates": {
            "lat": 6.45271,
            "lng": 3.3504
          },
          "added_by": "GRID3 (racheal.olarewaju)",
          "local_name": "Oluwa Shopping Mall"
        },
        {
          "name": "Shopping Plaza, Ajeromi-Ifelodun",
          "slug": "shopping-plaza-ajeromi-ifelodun",
          "coordinates": {
            "lat": 6.45819,
            "lng": 3.34294
          },
          "added_by": "GRID3 (racheal.olarewaju)",
          "local_name": "Shopping Plaza"
        },
        {
          "name": "Suru Alaba Market, Ajeromi-Ifelodun",
          "slug": "suru-alaba-market-ajeromi-ifelodun",
          "coordinates": {
            "lat": 6.46252,
            "lng": 3.32392
          },
          "added_by": "GRID3 (racheal.olarewaju)",
          "local_name": "Suru Alaba"
        },
        {
          "name": "Ultra Modern Shopping Complex Suru Alaba, Ajeromi-Ifelodun",
          "slug": "ultra-modern-shopping-complex-suru-alaba-ajeromi-ifelodun",
          "coordinates": {
            "lat": 6.462558765,
            "lng": 3.323400349
          },
          "added_by": "GRID3 (kevin.ukueku)",
          "frequency": "Weekly",
          "type": "Clothing Livestock Electronic Spare Parts Food Stuff Mixed Other",
          "local_name": "Suru Alaba",
          "days": [
            "Mon",
            "Tue",
            "Wed",
            "Thu",
            "Fri",
            "Sat",
            "Sun"
          ]
        }
      ]
    },
    {
      "name": "Alimosho",
      "slug": "lagos-alimosho",
      "markets": [
        {
          "name": "Abaranje Market, Alimosho",
          "slug": "abaranje-market-alimosho",
          "coordinates": {
            "lat": 6.528911105,
            "lng": 3.239909654
          },
          "added_by": "GRID3 (kevin.ukueku)",
          "frequency": "Weekly",
          "type": "Clothing Electronic Spare Parts Food Stuff Mixed",
          "local_name": "Abaranje",
          "days": [
            "Mon",
            "Tue",
            "Wed",
            "Thu",
            "Fri",
            "Sat"
          ]
        },
        {
          "name": "Abesan Retail Market, Alimosho",
          "slug": "abesan-retail-market-alimosho",
          "coordinates": {
            "lat": 6.606197366,
            "lng": 3.270070778
          },
          "added_by": "GRID3 (kevin.ukueku)",
          "frequency": "Weekly",
          "type": "Mixed",
          "local_name": "Abesan estate",
          "days": [
            "Mon",
            "Tue",
            "Wed",
            "Thu",
            "Fri",
            "Sat",
            "Sun"
          ]
        },
        {
          "name": "Abibatu Mogaji Market, Alimosho",
          "slug": "abibatu-mogaji-market-alimosho",
          "coordinates": {
            "lat": 6.607168333,
            "lng": 3.255645
          },
          "added_by": "GRID3 (kevin.ukueku)",
          "frequency": "Other",
          "type": "Clothing Food Stuff Mixed",
          "local_name": "Ipaja",
          "days": [
            "Mon",
            "Tue",
            "Wed",
            "Thu",
            "Fri",
            "Sat"
          ]
        },
        {
          "name": "Agodo Irepodun Market, Alimosho",
          "slug": "agodo-irepodun-market-alimosho",
          "coordinates": {
            "lat": 6.53200983,
            "lng": 3.279111785
          },
          "added_by": "GRID3 (kevin.ukueku)",
          "frequency": "Weekly",
          "type": "Livestock Food Stuff",
          "local_name": "Agodo",
          "days": [
            "Mon",
            "Tue",
            "Wed",
            "Thu",
            "Fri",
            "Sat",
            "Sun"
          ]
        },
        {
          "name": "Ajasa Modern Market, Alimosho",
          "slug": "ajasa-modern-market-alimosho",
          "coordinates": {
            "lat": 6.638761667,
            "lng": 3.259511667
          },
          "added_by": "GRID3 (kevin.ukueku)",
          "frequency": "Other",
          "type": "Mixed",
          "local_name": "Ajasa",
          "days": [
            "Mon",
            "Tue",
            "Wed",
            "Thu",
            "Fri",
            "Sat",
            "Sun"
          ]
        },
        {
          "name": "Ajegunle Shopping Company, Alimosho",
          "slug": "ajegunle-shopping-company-alimosho",
          "coordinates": {
            "lat": 6.68755,
            "lng": 3.2615
          },
          "added_by": "GRID3 (racheal.olarewaju)",
          "local_name": "Ajegunle Shopping Company"
        },
        {
          "name": "Atadola Farm Market, Alimosho",
          "slug": "atadola-farm-market-alimosho",
          "coordinates": {
            "lat": 6.635382301,
            "lng": 3.254975692
          },
          "added_by": "GRID3 (kevin.ukueku)",
          "frequency": "Weekly",
          "type": "Clothing Food Stuff Mixed",
          "local_name": "Ajasa Command Atapa Road Lagos State",
          "days": [
            "Mon",
            "Tue",
            "Wed",
            "Thu",
            "Fri"
          ]
        },
        {
          "name": "Ayobo, Alimosho",
          "slug": "ayobo-alimosho",
          "coordinates": {
            "lat": 6.59972,
            "lng": 3.23899
          },
          "added_by": "GRID3 (racheal.olarewaju)",
          "local_name": "Ayobo"
        },
        {
          "name": "Best Price Supermart, Alimosho",
          "slug": "best-price-supermart-alimosho",
          "coordinates": {
            "lat": 6.634364451,
            "lng": 3.256056375
          },
          "added_by": "GRID3 (kevin.ukueku)",
          "frequency": "Weekly",
          "type": "Clothing Electronic Spare Parts Food Stuff",
          "local_name": "Command Bus Stop",
          "days": [
            "Mon",
            "Tue",
            "Wed",
            "Thu",
            "Fri",
            "Sat"
          ]
        },
        {
          "name": "Bola Tinubu Model Market, Alimosho",
          "slug": "bola-tinubu-model-market-alimosho",
          "coordinates": {
            "lat": 6.609503333,
            "lng": 3.291725
          },
          "added_by": "GRID3 (kevin.ukueku)",
          "frequency": "Weekly",
          "type": "Mixed",
          "local_name": "Gowon estate",
          "days": [
            "Mon",
            "Tue",
            "Wed",
            "Thu",
            "Fri",
            "Sat",
            "Sun"
          ]
        },
        {
          "name": "Boluwatife Super Market, Alimosho",
          "slug": "boluwatife-super-market-alimosho",
          "coordinates": {
            "lat": 6.5703805,
            "lng": 3.2107465
          },
          "added_by": "GRID3 (kevin.ukueku)",
          "frequency": "Weekly",
          "type": "Clothing Food Stuff Mixed",
          "local_name": "Akinola Street, Ijon Promise Land Ayo Lagos",
          "days": [
            "Mon",
            "Tue",
            "Wed",
            "Thu",
            "Fri",
            "Sat"
          ]
        },
        {
          "name": "Egan Market, Alimosho",
          "slug": "egan-market-alimosho",
          "coordinates": {
            "lat": 6.550561078,
            "lng": 3.238343215
          },
          "added_by": "GRID3 (kevin.ukueku)",
          "frequency": "Weekly",
          "type": "Clothing Livestock Electronic Spare Parts Food Stuff",
          "local_name": "Egan market",
          "days": [
            "Mon",
            "Tue",
            "Wed",
            "Thu",
            "Fri",
            "Sat"
          ]
        },
        {
          "name": "Egan Odo Plank Market, Alimosho",
          "slug": "egan-odo-plank-market-alimosho",
          "coordinates": {
            "lat": 6.552091667,
            "lng": 3.206715
          },
          "added_by": "GRID3 (kevin.ukueku)",
          "frequency": "Other",
          "type": "Other",
          "local_name": "Egan",
          "days": [
            "Mon",
            "Tue",
            "Thu",
            "Fri",
            "Sat",
            "Sun"
          ]
        },
        {
          "name": "Egbe Modern Market, Alimosho",
          "slug": "egbe-modern-market-alimosho",
          "coordinates": {
            "lat": 6.544436667,
            "lng": 3.276766667
          },
          "added_by": "GRID3 (kevin.ukueku)",
          "frequency": "Monthly",
          "type": "Clothing Livestock Electronic Spare Parts Food Stuff Mixed",
          "local_name": "Egbe market",
          "days": [
            "Mon",
            "Tue",
            "Wed",
            "Thu",
            "Fri",
            "Sat",
            "Sun"
          ]
        },
        {
          "name": "Eshindana Market, Alimosho",
          "slug": "eshindana-market-alimosho",
          "coordinates": {
            "lat": 6.528323503,
            "lng": 3.23692207
          },
          "added_by": "GRID3 (kevin.ukueku)",
          "frequency": "Other",
          "type": "Clothing Electronic Spare Parts Food Stuff",
          "local_name": "Okerube",
          "days": [
            "Mon",
            "Tue",
            "Wed",
            "Thu",
            "Fri",
            "Sat",
            "Sun"
          ]
        },
        {
          "name": "Fajol Shopping Plaza, Alimosho",
          "slug": "fajol-shopping-plaza-alimosho",
          "coordinates": {
            "lat": 6.663896041,
            "lng": 3.281353964
          },
          "added_by": "GRID3 (kevin.ukueku)",
          "frequency": "Other",
          "type": "Clothing Electronic Spare Parts Mixed Other",
          "local_name": "Market",
          "days": [
            "Mon",
            "Tue",
            "Wed",
            "Thu",
            "Fri",
            "Sat"
          ]
        },
        {
          "name": "Gb Xpress, Alimosho",
          "slug": "gb-xpress-alimosho",
          "coordinates": {
            "lat": 6.566641606,
            "lng": 3.276978164
          },
          "added_by": "GRID3 (kevin.ukueku)",
          "frequency": "Bi-Weekly",
          "type": "Clothing Food Stuff Mixed",
          "local_name": "Idimu",
          "days": [
            "Mon",
            "Tue",
            "Wed",
            "Thu",
            "Fri",
            "Sat",
            "Sun"
          ]
        },
        {
          "name": "Idera Market, Alimosho",
          "slug": "idera-market-alimosho",
          "coordinates": {
            "lat": 6.527063241,
            "lng": 3.215137362
          },
          "added_by": "GRID3 (kevin.ukueku)",
          "frequency": "Other",
          "type": "Food Stuff",
          "local_name": "Obadore",
          "days": [
            "Mon",
            "Tue",
            "Wed",
            "Thu",
            "Fri",
            "Sat"
          ]
        },
        {
          "name": "Idimu Plank Market, Alimosho",
          "slug": "idimu-plank-market-alimosho",
          "coordinates": {
            "lat": 6.565605634,
            "lng": 3.280689481
          },
          "added_by": "GRID3 (kevin.ukueku)",
          "frequency": "Weekly",
          "type": "Other",
          "local_name": "Odimu",
          "days": [
            "Mon",
            "Tue",
            "Wed",
            "Thu",
            "Fri",
            "Sat",
            "Sun"
          ]
        },
        {
          "name": "Ifesowspo Brothers Association Meat Market, Alimosho",
          "slug": "ifesowspo-brothers-association-meat-market-alimosho",
          "coordinates": {
            "lat": 6.663095,
            "lng": 3.283243333
          },
          "added_by": "GRID3 (kevin.ukueku)",
          "frequency": "Other",
          "type": "Livestock Food Stuff",
          "local_name": "Merian",
          "days": [
            "Mon",
            "Tue",
            "Wed",
            "Thu",
            "Fri",
            "Sat",
            "Sun"
          ]
        },
        {
          "name": "Igando Multipurpose Market, Alimosho",
          "slug": "igando-multipurpose-market-alimosho",
          "coordinates": {
            "lat": 6.551867006,
            "lng": 3.240482994
          },
          "added_by": "GRID3 (racheal.olarewaju)",
          "local_name": "Igando Multipurpose"
        },
        {
          "name": "Ijegun Market 289, Alimosho",
          "slug": "ijegun-market-289-alimosho",
          "coordinates": {
            "lat": 6.517903333,
            "lng": 3.256731667
          },
          "added_by": "GRID3 (kevin.ukueku)",
          "frequency": "Other",
          "type": "Mixed",
          "local_name": "Ijegun",
          "days": [
            "Mon",
            "Tue",
            "Wed",
            "Thu",
            "Fri",
            "Sat",
            "Sun"
          ]
        },
        {
          "name": "Ijegun Road Round About, Alimosho",
          "slug": "ijegun-road-round-about-alimosho",
          "coordinates": {
            "lat": 6.54763,
            "lng": 3.267261667
          },
          "added_by": "GRID3 (kevin.ukueku)",
          "frequency": "Other",
          "type": "Mixed",
          "local_name": "Ikotun",
          "days": [
            "Mon",
            "Tue",
            "Wed",
            "Thu",
            "Fri",
            "Sat",
            "Sun"
          ]
        },
        {
          "name": "Irepodun Market 224, Alimosho",
          "slug": "irepodun-market-224-alimosho",
          "coordinates": {
            "lat": 6.5337808,
            "lng": 3.2797914
          },
          "added_by": "GRID3 (kevin.ukueku)",
          "frequency": "Other",
          "type": "Livestock Food Stuff Mixed",
          "local_name": "Ikotun",
          "days": [
            "Mon",
            "Tue",
            "Wed",
            "Thu",
            "Fri",
            "Sat",
            "Sun"
          ]
        },
        {
          "name": "Irepodun Market 228, Alimosho",
          "slug": "irepodun-market-228-alimosho",
          "coordinates": {
            "lat": 6.549792142,
            "lng": 3.268634677
          },
          "added_by": "GRID3 (kevin.ukueku)",
          "frequency": "Weekly",
          "type": "Clothing Livestock Food Stuff Mixed",
          "local_name": "Ikotun",
          "days": [
            "Mon",
            "Tue",
            "Wed",
            "Thu",
            "Fri",
            "Sat",
            "Sun"
          ]
        },
        {
          "name": "Isheri Bus Stop Market, Alimosho",
          "slug": "isheri-bus-stop-market-alimosho",
          "coordinates": {
            "lat": 6.57622,
            "lng": 3.28072
          },
          "added_by": "GRID3 (kevin.ukueku)",
          "frequency": "Other",
          "type": "Clothing Livestock Food Stuff",
          "local_name": "Isheri Olofin",
          "days": [
            "Mon",
            "Tue",
            "Wed",
            "Thu",
            "Fri",
            "Sat",
            "Sun"
          ]
        },
        {
          "name": "Ishri Market, Alimosho",
          "slug": "ishri-market-alimosho",
          "coordinates": {
            "lat": 6.57119,
            "lng": 3.27674
          },
          "added_by": "GRID3 (racheal.olarewaju)",
          "local_name": "Ishri"
        },
        {
          "name": "Itesiwaju Eko Wood Market, Alimosho",
          "slug": "itesiwaju-eko-wood-market-alimosho",
          "coordinates": {
            "lat": 6.553238333,
            "lng": 3.244705
          },
          "added_by": "GRID3 (kevin.ukueku)",
          "frequency": "Other",
          "type": "Other",
          "local_name": "Igando",
          "days": [
            "Mon",
            "Tue",
            "Wed",
            "Thu",
            "Fri",
            "Sat",
            "Sun"
          ]
        },
        {
          "name": "Iyana Ipaja Market, Alimosho",
          "slug": "iyana-ipaja-market-alimosho",
          "coordinates": {
            "lat": 6.61771,
            "lng": 3.29984
          },
          "added_by": "GRID3 (racheal.olarewaju)",
          "local_name": "Iyana Ipaja"
        },
        {
          "name": "Josboyan Food Market, Alimosho",
          "slug": "josboyan-food-market-alimosho",
          "coordinates": {
            "lat": 6.600858333,
            "lng": 3.276928333
          },
          "added_by": "GRID3 (kevin.ukueku)",
          "frequency": "Weekly",
          "type": "Food Stuff",
          "local_name": "Gowan estate",
          "days": [
            "Mon",
            "Tue",
            "Wed",
            "Thu",
            "Fri",
            "Sat"
          ]
        },
        {
          "name": "Kunlop Plaza, Alimosho",
          "slug": "kunlop-plaza-alimosho",
          "coordinates": {
            "lat": 6.601477578,
            "lng": 3.244852991
          },
          "added_by": "GRID3 (kevin.ukueku)",
          "frequency": "Other",
          "type": "Clothing Food Stuff Mixed Other",
          "local_name": "Amole",
          "days": [
            "Mon",
            "Tue",
            "Wed",
            "Thu",
            "Fri",
            "Sat",
            "Sun"
          ]
        },
        {
          "name": "Ladegba Market, Alimosho",
          "slug": "ladegba-market-alimosho",
          "coordinates": {
            "lat": 6.610275,
            "lng": 3.284586667
          },
          "added_by": "GRID3 (kevin.ukueku)",
          "frequency": "Weekly",
          "type": "Electronic Spare Parts",
          "local_name": "Shagari estate",
          "days": [
            "Mon",
            "Tue",
            "Wed",
            "Thu",
            "Fri",
            "Sat"
          ]
        },
        {
          "name": "Mosan Market, Alimosho",
          "slug": "mosan-market-alimosho",
          "coordinates": {
            "lat": 6.613633333,
            "lng": 3.274093333
          },
          "added_by": "GRID3 (kevin.ukueku)",
          "frequency": "Other",
          "type": "Food Stuff",
          "local_name": "Mosan community market",
          "days": [
            "Mon",
            "Tue",
            "Wed",
            "Thu",
            "Fri",
            "Sat",
            "Sun"
          ]
        },
        {
          "name": "New Life Motor Spare Part, Alimosho",
          "slug": "new-life-motor-spare-part-alimosho",
          "coordinates": {
            "lat": 6.579433858,
            "lng": 3.281874434
          },
          "added_by": "GRID3 (kevin.ukueku)",
          "frequency": "Other",
          "type": "Electronic Spare Parts",
          "local_name": "Isheri idimu",
          "days": [
            "Mon",
            "Tue",
            "Wed",
            "Thu",
            "Fri",
            "Sat"
          ]
        },
        {
          "name": "Nojimu Tiamiyi Market, Alimosho",
          "slug": "nojimu-tiamiyi-market-alimosho",
          "coordinates": {
            "lat": 6.59067,
            "lng": 3.22946
          },
          "added_by": "GRID3 (racheal.olarewaju)",
          "local_name": "Nojimu Tiamiyi"
        },
        {
          "name": "Odemuyiwa Market, Alimosho",
          "slug": "odemuyiwa-market-alimosho",
          "coordinates": {
            "lat": 6.590886667,
            "lng": 3.281363333
          },
          "added_by": "GRID3 (kevin.ukueku)",
          "frequency": "Weekly",
          "type": "Food Stuff",
          "local_name": "Power line street",
          "days": [
            "Mon",
            "Tue",
            "Wed",
            "Thu",
            "Fri",
            "Sat"
          ]
        },
        {
          "name": "Oja Oba Main Market, Alimosho",
          "slug": "oja-oba-main-market-alimosho",
          "coordinates": {
            "lat": 6.53752,
            "lng": 3.253248333
          },
          "added_by": "GRID3 (kevin.ukueku)",
          "frequency": "Other",
          "type": "Food Stuff",
          "local_name": "Abaranje",
          "days": [
            "Mon",
            "Tue",
            "Wed",
            "Thu",
            "Fri",
            "Sat"
          ]
        },
        {
          "name": "Oja Oba Plank Market, Alimosho",
          "slug": "oja-oba-plank-market-alimosho",
          "coordinates": {
            "lat": 6.576621667,
            "lng": 3.276316667
          },
          "added_by": "GRID3 (kevin.ukueku)",
          "frequency": "Other",
          "type": "Mixed Other",
          "local_name": "Isheri Olofin",
          "days": [
            "Mon",
            "Tue",
            "Wed",
            "Thu",
            "Fri",
            "Sat",
            "Sun"
          ]
        },
        {
          "name": "Oke Odo Market, Alimosho",
          "slug": "oke-odo-market-alimosho",
          "coordinates": {
            "lat": 6.63545,
            "lng": 3.3011
          },
          "added_by": "GRID3 (racheal.olarewaju)",
          "local_name": "Oke Odo"
        },
        {
          "name": "Okerube Plank Market, Alimosho",
          "slug": "okerube-plank-market-alimosho",
          "coordinates": {
            "lat": 6.528071667,
            "lng": 3.239223333
          },
          "added_by": "GRID3 (kevin.ukueku)",
          "frequency": "Other",
          "type": "Other",
          "local_name": "Okerube",
          "days": [
            "Mon",
            "Tue",
            "Wed",
            "Thu",
            "Fri",
            "Sat",
            "Sun"
          ]
        },
        {
          "name": "Olorunda Market, Alimosho",
          "slug": "olorunda-market-alimosho",
          "coordinates": {
            "lat": 6.595077471,
            "lng": 3.260239083
          },
          "added_by": "GRID3 (kevin.ukueku)",
          "frequency": "Weekly",
          "type": "Mixed",
          "local_name": "Ipaja",
          "days": [
            "Mon",
            "Tue",
            "Wed",
            "Thu",
            "Fri",
            "Sat",
            "Sun"
          ]
        },
        {
          "name": "Olufunmi Modern Market, Alimosho",
          "slug": "olufunmi-modern-market-alimosho",
          "coordinates": {
            "lat": 6.54921,
            "lng": 3.23369
          },
          "added_by": "GRID3 (racheal.olarewaju)",
          "local_name": "Olufunmi Modern"
        },
        {
          "name": "Olugbede Model Market, Alimosho",
          "slug": "olugbede-model-market-alimosho",
          "coordinates": {
            "lat": 6.594818333,
            "lng": 3.28923
          },
          "added_by": "GRID3 (kevin.ukueku)",
          "frequency": "Weekly",
          "type": "Mixed",
          "local_name": "Egbeda",
          "days": [
            "Mon",
            "Tue",
            "Wed",
            "Thu",
            "Fri",
            "Sat",
            "Sun"
          ]
        },
        {
          "name": "Orisunbare Modern Market, Alimosho",
          "slug": "orisunbare-modern-market-alimosho",
          "coordinates": {
            "lat": 6.571281667,
            "lng": 3.304201667
          },
          "added_by": "GRID3 (kevin.ukueku)",
          "frequency": "Weekly",
          "type": "Food Stuff",
          "local_name": "Shasha",
          "days": [
            "Tue"
          ]
        },
        {
          "name": "Owode Ultra Modern Market, Alimosho",
          "slug": "owode-ultra-modern-market-alimosho",
          "coordinates": {
            "lat": 6.551202364,
            "lng": 3.241128424
          },
          "added_by": "GRID3 (racheal.olarewaju)",
          "local_name": "Owode Ultra Modern"
        },
        {
          "name": "Pako Market 358, Alimosho",
          "slug": "pako-market-358-alimosho",
          "coordinates": {
            "lat": 6.546964793,
            "lng": 3.263995813
          },
          "added_by": "GRID3 (kevin.ukueku)",
          "frequency": "Other",
          "type": "Other",
          "local_name": "Igando Road",
          "days": [
            "Mon",
            "Tue",
            "Wed",
            "Thu",
            "Fri",
            "Sat",
            "Sun"
          ]
        },
        {
          "name": "Pipeline Market, Alimosho",
          "slug": "pipeline-market-alimosho",
          "coordinates": {
            "lat": 6.578137828,
            "lng": 3.283857475
          },
          "added_by": "GRID3 (kevin.ukueku)",
          "frequency": "Other",
          "type": "Food Stuff",
          "local_name": "Sheri idimu",
          "days": [
            "Mon",
            "Tue",
            "Wed",
            "Thu",
            "Fri",
            "Sat"
          ]
        },
        {
          "name": "Pipeline Plank Market, Alimosho",
          "slug": "pipeline-plank-market-alimosho",
          "coordinates": {
            "lat": 6.578330111,
            "lng": 3.282769116
          },
          "added_by": "GRID3 (kevin.ukueku)",
          "frequency": "Other",
          "type": "Other",
          "local_name": "Isheri olofin",
          "days": [
            "Mon",
            "Tue",
            "Wed",
            "Thu",
            "Fri",
            "Sat"
          ]
        },
        {
          "name": "Twins Super Market, Alimosho",
          "slug": "twins-super-market-alimosho",
          "coordinates": {
            "lat": 6.544577957,
            "lng": 3.264140682
          },
          "added_by": "GRID3 (kevin.ukueku)",
          "frequency": "Weekly",
          "type": "Clothing Electronic Spare Parts Food Stuff",
          "local_name": "Ikotun",
          "days": [
            "Mon",
            "Tue",
            "Wed",
            "Thu",
            "Fri"
          ]
        },
        {
          "name": "Wuraola Market, Alimosho",
          "slug": "wuraola-market-alimosho",
          "coordinates": {
            "lat": 6.593236667,
            "lng": 3.240831667
          },
          "added_by": "GRID3 (kevin.ukueku)",
          "frequency": "Weekly",
          "type": "Food Stuff",
          "local_name": "Ayobo Alaja Road",
          "days": [
            "Mon",
            "Tue",
            "Wed",
            "Thu",
            "Fri",
            "Sat"
          ]
        }
      ]
    },
    {
      "name": "Amuwo-Odofin",
      "slug": "lagos-amuwo-odofin",
      "markets": [
        {
          "name": "Abule Ado Cattle And Cow Market Abule Ado, Amuwo-Odofin",
          "slug": "abule-ado-cattle-and-cow-market-abule-ado-amuwo-odofin",
          "coordinates": {
            "lat": 6.456450914,
            "lng": 3.253242338
          },
          "added_by": "GRID3 (kevin.ukueku)",
          "frequency": "Other",
          "type": "Livestock",
          "local_name": "Abule Ado express",
          "days": [
            "Mon",
            "Tue",
            "Wed",
            "Thu",
            "Fri",
            "Sat",
            "Sun"
          ]
        },
        {
          "name": "Abule Ado Express Market, Amuwo-Odofin",
          "slug": "abule-ado-express-market-amuwo-odofin",
          "coordinates": {
            "lat": 6.455236667,
            "lng": 3.255816667
          },
          "added_by": "GRID3 (kevin.ukueku)",
          "frequency": "Other",
          "type": "Clothing Livestock Electronic Spare Parts Food Stuff",
          "local_name": "Abule Ado junction",
          "days": [
            "Mon",
            "Tue",
            "Wed",
            "Thu",
            "Fri",
            "Sat",
            "Sun"
          ]
        },
        {
          "name": "Agboju Market, Amuwo-Odofin",
          "slug": "agboju-market-amuwo-odofin",
          "coordinates": {
            "lat": 6.457995159,
            "lng": 3.286592121
          },
          "added_by": "GRID3 (kevin.ukueku)",
          "frequency": "Weekly",
          "type": "Clothing Livestock Electronic Spare Parts Food Stuff Mixed",
          "local_name": "Agboju",
          "days": [
            "Mon",
            "Tue",
            "Wed",
            "Thu",
            "Fri",
            "Sat",
            "Sun"
          ]
        },
        {
          "name": "Agric Building Material Association Complex, Amuwo-Odofin",
          "slug": "agric-building-material-association-complex-amuwo-odofin",
          "coordinates": {
            "lat": 6.45618063,
            "lng": 3.255602557
          },
          "added_by": "GRID3 (racheal.olarewaju)",
          "local_name": "Agric Building Material Association Complex"
        },
        {
          "name": "Article Dealers Market, Amuwo-Odofin",
          "slug": "article-dealers-market-amuwo-odofin",
          "coordinates": {
            "lat": 6.454870688,
            "lng": 3.24462296
          },
          "added_by": "GRID3 (kevin.ukueku)",
          "frequency": "Weekly",
          "type": "Clothing Livestock Electronic Spare Parts Mixed",
          "local_name": "Under Bridge",
          "days": [
            "Mon",
            "Tue",
            "Wed",
            "Thu",
            "Fri",
            "Sat"
          ]
        },
        {
          "name": "Festac 2 Gate Market, Amuwo-Odofin",
          "slug": "festac-2-gate-market-amuwo-odofin",
          "coordinates": {
            "lat": 6.461884108,
            "lng": 3.285816138
          },
          "added_by": "GRID3 (kevin.ukueku)",
          "frequency": "Weekly",
          "type": "Clothing Livestock Food Stuff Mixed",
          "local_name": "Festac",
          "days": [
            "Mon",
            "Tue",
            "Wed",
            "Thu",
            "Fri",
            "Sat",
            "Sun"
          ]
        },
        {
          "name": "Festac Market Shopping Centre, Amuwo-Odofin",
          "slug": "festac-market-shopping-centre-amuwo-odofin",
          "coordinates": {
            "lat": 6.475366691,
            "lng": 3.274262049
          },
          "added_by": "GRID3 (racheal.olarewaju)",
          "local_name": "Festac Shopping Center"
        },
        {
          "name": "Fh Market, Amuwo-Odofin",
          "slug": "fh-market-amuwo-odofin",
          "coordinates": {
            "lat": 6.453804293,
            "lng": 3.251861212
          },
          "added_by": "GRID3 (kevin.ukueku)",
          "frequency": "Other",
          "type": "Mixed",
          "local_name": "Old ojo road satellite town",
          "days": [
            "Mon",
            "Tue",
            "Wed",
            "Thu",
            "Fri",
            "Sat"
          ]
        },
        {
          "name": "Fruit Market Ago Road, Amuwo-Odofin",
          "slug": "fruit-market-ago-road-amuwo-odofin",
          "coordinates": {
            "lat": 6.477861667,
            "lng": 3.310225
          },
          "added_by": "GRID3 (kevin.ukueku)",
          "frequency": "Weekly",
          "type": "Livestock Food Stuff",
          "local_name": "Ago",
          "days": [
            "Mon",
            "Tue",
            "Wed",
            "Thu",
            "Fri",
            "Sat",
            "Sun"
          ]
        },
        {
          "name": "Ijegun Market 301, Amuwo-Odofin",
          "slug": "ijegun-market-301-amuwo-odofin",
          "coordinates": {
            "lat": 6.444941667,
            "lng": 3.261581667
          },
          "added_by": "GRID3 (kevin.ukueku)",
          "frequency": "Weekly",
          "type": "Clothing Livestock Food Stuff Mixed",
          "local_name": "Satellite Town",
          "days": [
            "Mon",
            "Tue",
            "Wed",
            "Thu",
            "Fri",
            "Sat",
            "Sun"
          ]
        },
        {
          "name": "Irepodun Fsp Market, Amuwo-Odofin",
          "slug": "irepodun-fsp-market-amuwo-odofin",
          "coordinates": {
            "lat": 6.45627,
            "lng": 3.27102
          },
          "added_by": "GRID3 (racheal.olarewaju)",
          "local_name": "Irepodun Fsp"
        },
        {
          "name": "Karimu Market, Amuwo-Odofin",
          "slug": "karimu-market-amuwo-odofin",
          "coordinates": {
            "lat": 6.441496647,
            "lng": 3.311274878
          },
          "added_by": "GRID3 (kevin.ukueku)",
          "frequency": "Weekly",
          "type": "Mixed",
          "local_name": "Kirikiri",
          "days": [
            "Mon",
            "Tue",
            "Wed",
            "Thu",
            "Fri",
            "Sat",
            "Sun"
          ]
        },
        {
          "name": "Kirikiri Market, Amuwo-Odofin",
          "slug": "kirikiri-market-amuwo-odofin",
          "coordinates": {
            "lat": 6.44317,
            "lng": 3.31133
          },
          "added_by": "GRID3 (racheal.olarewaju)",
          "local_name": "Kirikiri"
        },
        {
          "name": "Lagos International Trade Fair Complex, Amuwo-Odofin",
          "slug": "lagos-international-trade-fair-complex-amuwo-odofin",
          "coordinates": {
            "lat": 6.45804,
            "lng": 3.24626
          },
          "added_by": "GRID3 (racheal.olarewaju)",
          "local_name": "Lagos International Trade Fair Complex"
        },
        {
          "name": "Soba Market Soba Abule Ado, Amuwo-Odofin",
          "slug": "soba-market-soba-abule-ado-amuwo-odofin",
          "coordinates": {
            "lat": 6.456700444,
            "lng": 3.2556941
          },
          "added_by": "GRID3 (kevin.ukueku)",
          "frequency": "Other",
          "type": "Livestock Food Stuff",
          "local_name": "Soba market",
          "days": [
            "Mon",
            "Tue",
            "Wed",
            "Thu",
            "Sat"
          ]
        },
        {
          "name": "Trade Fair International Market, Amuwo-Odofin",
          "slug": "trade-fair-international-market-amuwo-odofin",
          "coordinates": {
            "lat": 6.460151279,
            "lng": 3.250036182
          },
          "added_by": "GRID3 (kevin.ukueku)",
          "frequency": "Other",
          "type": "Mixed",
          "local_name": "Trade fair ojo",
          "days": [
            "Mon",
            "Tue",
            "Wed",
            "Thu",
            "Fri",
            "Sat",
            "Sun"
          ]
        }
      ]
    },
    {
      "name": "Apapa",
      "slug": "lagos-apapa",
      "markets": [
        {
          "name": "7up Market, Apapa",
          "slug": "7up-market-apapa",
          "coordinates": {
            "lat": 6.46761,
            "lng": 3.36795
          },
          "added_by": "GRID3 (racheal.olarewaju)",
          "local_name": "7up"
        },
        {
          "name": "Alayabi Agba Market, Apapa",
          "slug": "alayabi-agba-market-apapa",
          "coordinates": {
            "lat": 6.454299253,
            "lng": 3.35125701
          },
          "added_by": "GRID3 (kevin.ukueku)",
          "frequency": "Other",
          "type": "Mixed",
          "local_name": "Ajegunle Opposite Nosamu street",
          "days": [
            "Fri",
            "Sun"
          ]
        },
        {
          "name": "Aratunmi Shopping Complex, Apapa",
          "slug": "aratunmi-shopping-complex-apapa",
          "coordinates": {
            "lat": 6.477098333,
            "lng": 3.344618333
          },
          "added_by": "GRID3 (kevin.ukueku)",
          "frequency": "Monthly",
          "type": "Clothing Electronic Spare Parts Food Stuff Mixed",
          "local_name": "Sari iganmu",
          "days": [
            "Mon",
            "Tue",
            "Wed",
            "Thu",
            "Fri",
            "Sat",
            "Sun"
          ]
        },
        {
          "name": "Ayeke Market, Apapa",
          "slug": "ayeke-market-apapa",
          "coordinates": {
            "lat": 6.453380576,
            "lng": 3.350889147
          },
          "added_by": "GRID3 (kevin.ukueku)",
          "frequency": "Other",
          "type": "Mixed",
          "local_name": "Bale Alayabiagba",
          "days": [
            "Fri",
            "Sun"
          ]
        },
        {
          "name": "Ijora Badia Police Station Market, Apapa",
          "slug": "ijora-badia-police-station-market-apapa",
          "coordinates": {
            "lat": 6.468916202,
            "lng": 3.361388899
          },
          "added_by": "GRID3 (kevin.ukueku)",
          "frequency": "Weekly",
          "type": "Food Stuff Other",
          "local_name": "Better life ijora badia police station",
          "days": [
            "Mon",
            "Tue",
            "Wed",
            "Thu",
            "Fri",
            "Sat"
          ]
        },
        {
          "name": "Ijora Market Ijora, Apapa",
          "slug": "ijora-market-ijora-apapa",
          "coordinates": {
            "lat": 6.469063439,
            "lng": 3.362939263
          },
          "added_by": "GRID3 (kevin.ukueku)",
          "frequency": "Weekly",
          "type": "Clothing Livestock Food Stuff",
          "local_name": "Ijora badia",
          "days": [
            "Mon",
            "Tue",
            "Wed",
            "Thu",
            "Fri",
            "Sat",
            "Sun"
          ]
        },
        {
          "name": "Ijora Olopa Marketunder Bridge, Apapa",
          "slug": "ijora-olopa-marketunder-bridge-apapa",
          "coordinates": {
            "lat": 6.468126667,
            "lng": 3.37795
          },
          "added_by": "GRID3 (kevin.ukueku)",
          "frequency": "Weekly",
          "type": "Livestock Food Stuff",
          "local_name": "Ijora olopa",
          "days": [
            "Mon",
            "Tue",
            "Wed",
            "Thu",
            "Fri",
            "Sat"
          ]
        },
        {
          "name": "Ijora Railway Under Bridge Pako Market, Apapa",
          "slug": "ijora-railway-under-bridge-pako-market-apapa",
          "coordinates": {
            "lat": 6.463775,
            "lng": 3.363885
          },
          "added_by": "GRID3 (kevin.ukueku)",
          "frequency": "Weekly",
          "type": "Other",
          "local_name": "Under bridge railway",
          "days": [
            "Mon",
            "Tue",
            "Wed",
            "Thu",
            "Fri",
            "Sat"
          ]
        },
        {
          "name": "Kamaroun Market Apapa Road Ijora",
          "slug": "kamaroun-market-apapa-road-ijora",
          "coordinates": {
            "lat": 6.466825212,
            "lng": 3.363480041
          },
          "added_by": "GRID3 (kevin.ukueku)",
          "frequency": "Weekly",
          "type": "Livestock Food Stuff",
          "local_name": "Apapa road ijora",
          "days": [
            "Mon",
            "Tue",
            "Wed",
            "Thu",
            "Fri",
            "Sat",
            "Sun"
          ]
        },
        {
          "name": "Rabiatu S Shopping Plaza, Apapa",
          "slug": "rabiatu-s-shopping-plaza-apapa",
          "coordinates": {
            "lat": 6.468179152,
            "lng": 3.366963333
          },
          "added_by": "GRID3 (kevin.ukueku)",
          "frequency": "Weekly",
          "type": "Electronic Spare Parts",
          "local_name": "Ijora Oloye",
          "days": [
            "Mon",
            "Tue",
            "Wed",
            "Thu",
            "Fri",
            "Sat"
          ]
        },
        {
          "name": "Railway Market 254, Apapa",
          "slug": "railway-market-254-apapa",
          "coordinates": {
            "lat": 6.468441106,
            "lng": 3.362161106
          },
          "added_by": "GRID3 (kevin.ukueku)",
          "frequency": "Weekly",
          "type": "Clothing Livestock Other",
          "local_name": "Better life, fadaini street badia",
          "days": [
            "Mon",
            "Tue",
            "Wed",
            "Thu",
            "Fri",
            "Sat",
            "Sun"
          ]
        },
        {
          "name": "Sari Iganmu Market, Apapa",
          "slug": "sari-iganmu-market-apapa",
          "coordinates": {
            "lat": 6.476111622,
            "lng": 3.34263981
          },
          "added_by": "GRID3 (kevin.ukueku)",
          "frequency": "Weekly",
          "type": "Clothing Livestock Food Stuff Mixed",
          "local_name": "Sari Iganmu",
          "days": [
            "Mon",
            "Tue",
            "Wed",
            "Thu",
            "Fri",
            "Sat"
          ]
        },
        {
          "name": "Sari Market, Apapa",
          "slug": "sari-market-apapa",
          "coordinates": {
            "lat": 6.47495,
            "lng": 3.34634
          },
          "added_by": "GRID3 (racheal.olarewaju)",
          "local_name": "Sari"
        },
        {
          "name": "Sunny Market The Beach Liverpool, Apapa",
          "slug": "sunny-market-the-beach-liverpool-apapa",
          "coordinates": {
            "lat": 6.439413333,
            "lng": 3.358896667
          },
          "added_by": "GRID3 (kevin.ukueku)",
          "frequency": "Weekly",
          "type": "Clothing Livestock Food Stuff",
          "local_name": "Sunny market",
          "days": [
            "Mon",
            "Tue",
            "Wed",
            "Thu",
            "Sun"
          ]
        }
      ]
    },
    {
      "name": "Badagry",
      "slug": "lagos-badagry",
      "markets": [
        {
          "name": "3c Hub Building, Badagry",
          "slug": "3c-hub-building-badagry",
          "coordinates": {
            "lat": 6.417905,
            "lng": 2.877615
          },
          "added_by": "GRID3 (kevin.ukueku)",
          "frequency": "Other",
          "type": "Electronic Spare Parts",
          "local_name": "Bereke",
          "days": [
            "Mon",
            "Tue",
            "Wed",
            "Thu",
            "Fri",
            "Sat"
          ]
        },
        {
          "name": "Aanuoluwapo Plank Market, Badagry",
          "slug": "aanuoluwapo-plank-market-badagry",
          "coordinates": {
            "lat": 6.498052872,
            "lng": 3.008787589
          },
          "added_by": "GRID3 (kevin.ukueku)",
          "frequency": "Other",
          "type": "Other",
          "local_name": "Agunma",
          "days": [
            "Mon",
            "Tue",
            "Wed",
            "Thu",
            "Fri",
            "Sat"
          ]
        },
        {
          "name": "Agbalata Market, Badagry",
          "slug": "agbalata-market-badagry",
          "coordinates": {
            "lat": 6.417622818,
            "lng": 2.875698527
          },
          "added_by": "GRID3 (kevin.ukueku)",
          "frequency": "Other",
          "type": "Mixed",
          "local_name": "Jegba",
          "days": [
            "Mon",
            "Tue",
            "Wed",
            "Thu",
            "Fri",
            "Sat"
          ]
        },
        {
          "name": "Agbokejoye Market, Badagry",
          "slug": "agbokejoye-market-badagry",
          "coordinates": {
            "lat": 6.482266667,
            "lng": 3.028955
          },
          "added_by": "GRID3 (kevin.ukueku)",
          "frequency": "Weekly",
          "type": "Clothing Livestock Food Stuff Mixed",
          "local_name": "Oko afo",
          "days": [
            "Mon",
            "Tue",
            "Wed",
            "Thu",
            "Fri",
            "Sat",
            "Sun"
          ]
        },
        {
          "name": "Agunmo Market, Badagry",
          "slug": "agunmo-market-badagry",
          "coordinates": {
            "lat": 6.496622866,
            "lng": 3.005424605
          },
          "added_by": "GRID3 (kevin.ukueku)",
          "frequency": "Other",
          "type": "Clothing Livestock Food Stuff Mixed",
          "local_name": "Agunmo",
          "days": [
            "Mon",
            "Tue",
            "Wed",
            "Thu",
            "Fri",
            "Sat",
            "Sun"
          ]
        },
        {
          "name": "Ajagamibo Market, Badagry",
          "slug": "ajagamibo-market-badagry",
          "coordinates": {
            "lat": 6.439709004,
            "lng": 2.956836719
          },
          "added_by": "GRID3 (kevin.ukueku)",
          "frequency": "Weekly",
          "type": "Mixed",
          "local_name": "Aradagun",
          "days": [
            "Mon",
            "Tue",
            "Wed",
            "Thu",
            "Fri",
            "Sat",
            "Sun"
          ]
        },
        {
          "name": "Ajagun Modern Market, Badagry",
          "slug": "ajagun-modern-market-badagry",
          "coordinates": {
            "lat": 6.436631667,
            "lng": 2.978158333
          },
          "added_by": "GRID3 (kevin.ukueku)",
          "frequency": "Other",
          "type": "Food Stuff",
          "local_name": "Imeke",
          "days": [
            "Mon",
            "Tue",
            "Wed",
            "Thu",
            "Fri",
            "Sat",
            "Sun"
          ]
        },
        {
          "name": "Alhaja Awawu Ayoka Ashorobi Plaza, Badagry",
          "slug": "alhaja-awawu-ayoka-ashorobi-plaza-badagry",
          "coordinates": {
            "lat": 6.437868333,
            "lng": 2.967113333
          },
          "added_by": "GRID3 (kevin.ukueku)",
          "frequency": "Other",
          "type": "Clothing Electronic Spare Parts Food Stuff Mixed",
          "local_name": "Ilado",
          "days": [
            "Mon",
            "Tue",
            "Wed",
            "Thu",
            "Fri",
            "Sat"
          ]
        },
        {
          "name": "Apa Building Material, Badagry",
          "slug": "apa-building-material-badagry",
          "coordinates": {
            "lat": 6.426585,
            "lng": 2.805525
          },
          "added_by": "GRID3 (kevin.ukueku)",
          "frequency": "Weekly",
          "type": "Other",
          "local_name": "Apa",
          "days": [
            "Mon",
            "Tue",
            "Wed",
            "Thu",
            "Fri",
            "Sat"
          ]
        },
        {
          "name": "Apa Market, Badagry",
          "slug": "apa-market-badagry",
          "coordinates": {
            "lat": 6.4314163,
            "lng": 2.8216825
          },
          "added_by": "GRID3 (kevin.ukueku)",
          "frequency": "Weekly",
          "type": "Mixed",
          "local_name": "Apa",
          "days": [
            "Mon",
            "Tue",
            "Wed",
            "Thu",
            "Fri",
            "Sat"
          ]
        },
        {
          "name": "Aradagun Market, Badagry",
          "slug": "aradagun-market-badagry",
          "coordinates": {
            "lat": 6.442131812,
            "lng": 2.949387177
          },
          "added_by": "GRID3 (kevin.ukueku)",
          "frequency": "Other",
          "type": "Mixed",
          "local_name": "Aradagun",
          "days": [
            "Mon",
            "Tue",
            "Wed",
            "Thu",
            "Fri",
            "Sat",
            "Sun"
          ]
        },
        {
          "name": "Araromi Market 2, Badagry",
          "slug": "araromi-market-2-badagry",
          "coordinates": {
            "lat": 6.476493218,
            "lng": 3.019849025
          },
          "added_by": "GRID3 (kevin.ukueku)",
          "frequency": "Weekly",
          "type": "Mixed",
          "local_name": "Market size",
          "days": [
            "Mon",
            "Tue",
            "Wed",
            "Thu",
            "Fri",
            "Sat"
          ]
        },
        {
          "name": "Araromi Sawmill, Badagry",
          "slug": "araromi-sawmill-badagry",
          "coordinates": {
            "lat": 6.477571287,
            "lng": 3.020951123
          },
          "added_by": "GRID3 (kevin.ukueku)",
          "frequency": "Weekly",
          "type": "Mixed Other",
          "local_name": "Araromi",
          "days": [
            "Mon",
            "Tue",
            "Wed",
            "Thu",
            "Fri",
            "Sat"
          ]
        },
        {
          "name": "Ayelaju Market, Badagry",
          "slug": "ayelaju-market-badagry",
          "coordinates": {
            "lat": 6.441183333,
            "lng": 2.92012
          },
          "added_by": "GRID3 (kevin.ukueku)",
          "frequency": "Weekly",
          "type": "Livestock Food Stuff",
          "local_name": "Ibereko",
          "days": [
            "Mon",
            "Tue",
            "Wed",
            "Thu",
            "Fri",
            "Sat"
          ]
        },
        {
          "name": "Ayinke Plaza, Badagry",
          "slug": "ayinke-plaza-badagry",
          "coordinates": {
            "lat": 6.438105,
            "lng": 2.962655
          },
          "added_by": "GRID3 (kevin.ukueku)",
          "frequency": "Weekly",
          "type": "Clothing Electronic Spare Parts Food Stuff Other",
          "local_name": "Ilado",
          "days": [
            "Mon",
            "Tue",
            "Wed",
            "Thu",
            "Fri",
            "Sat"
          ]
        },
        {
          "name": "Bizsam Shopping Complex, Badagry",
          "slug": "bizsam-shopping-complex-badagry",
          "coordinates": {
            "lat": 6.434606667,
            "lng": 2.900675
          },
          "added_by": "GRID3 (kevin.ukueku)",
          "frequency": "Weekly",
          "type": "Other",
          "local_name": "Torikoh",
          "days": [
            "Mon",
            "Tue",
            "Wed",
            "Thu",
            "Fri",
            "Sat"
          ]
        },
        {
          "name": "Ibiye Market, Badagry",
          "slug": "ibiye-market-badagry",
          "coordinates": {
            "lat": 6.484686667,
            "lng": 3.075701667
          },
          "added_by": "GRID3 (kevin.ukueku)",
          "frequency": "Weekly",
          "type": "Food Stuff",
          "local_name": "Ibiye",
          "days": [
            "Mon",
            "Tue",
            "Wed",
            "Thu",
            "Fri",
            "Sat"
          ]
        },
        {
          "name": "Ibiye Meat Market, Badagry",
          "slug": "ibiye-meat-market-badagry",
          "coordinates": {
            "lat": 6.48999,
            "lng": 3.07216
          },
          "added_by": "GRID3 (kevin.ukueku)",
          "frequency": "Other",
          "type": "Livestock Other",
          "local_name": "Ibiye",
          "days": [
            "Mon",
            "Tue",
            "Wed",
            "Thu",
            "Fri",
            "Sat"
          ]
        },
        {
          "name": "Ikoga Saw Mal Market, Badagry",
          "slug": "ikoga-saw-mal-market-badagry",
          "coordinates": {
            "lat": 6.486943174,
            "lng": 2.958822238
          },
          "added_by": "GRID3 (kevin.ukueku)",
          "frequency": "Weekly",
          "type": "Other",
          "local_name": "Ikoga",
          "days": [
            "Mon",
            "Tue",
            "Wed",
            "Thu",
            "Fri",
            "Sat"
          ]
        },
        {
          "name": "Illogun Eremi, Badagry",
          "slug": "illogun-eremi-badagry",
          "coordinates": {
            "lat": 6.501578333,
            "lng": 3.027771667
          },
          "added_by": "GRID3 (kevin.ukueku)",
          "frequency": "Weekly",
          "type": "Mixed",
          "local_name": "Illogun",
          "days": [
            "Mon",
            "Tue",
            "Wed",
            "Thu",
            "Fri",
            "Sat",
            "Sun"
          ]
        },
        {
          "name": "Iworo Market, Badagry",
          "slug": "iworo-market-badagry",
          "coordinates": {
            "lat": 6.414885,
            "lng": 3.014858333
          },
          "added_by": "GRID3 (kevin.ukueku)",
          "frequency": "Weekly",
          "type": "Clothing Livestock Food Stuff Mixed",
          "local_name": "Iworo",
          "days": [
            "Mon",
            "Tue",
            "Wed",
            "Thu",
            "Fri",
            "Sat",
            "Sun"
          ]
        },
        {
          "name": "Iyesi Plank Market, Badagry",
          "slug": "iyesi-plank-market-badagry",
          "coordinates": {
            "lat": 6.498326087,
            "lng": 3.011023791
          },
          "added_by": "GRID3 (kevin.ukueku)",
          "frequency": "Other",
          "type": "Other",
          "local_name": "Iyesi",
          "days": [
            "Mon",
            "Tue",
            "Wed",
            "Thu",
            "Fri",
            "Sat"
          ]
        },
        {
          "name": "Market 4, Badagry",
          "slug": "market-4-badagry",
          "coordinates": {
            "lat": 6.484487727,
            "lng": 2.959714323
          },
          "added_by": "GRID3 (kevin.ukueku)",
          "frequency": "Weekly",
          "type": "Other",
          "local_name": "Ikoga",
          "days": [
            "Mon",
            "Tue",
            "Wed",
            "Thu",
            "Fri",
            "Sat"
          ]
        },
        {
          "name": "Molakina Shopping Complex, Badagry",
          "slug": "molakina-shopping-complex-badagry",
          "coordinates": {
            "lat": 6.438811667,
            "lng": 2.90521
          },
          "added_by": "GRID3 (kevin.ukueku)",
          "frequency": "Weekly",
          "type": "Mixed",
          "local_name": "Ibereko",
          "days": [
            "Mon",
            "Tue",
            "Wed",
            "Thu",
            "Fri",
            "Sat"
          ]
        },
        {
          "name": "New Market, Badagry",
          "slug": "new-market-badagry",
          "coordinates": {
            "lat": 6.43566,
            "lng": 2.889188333
          },
          "added_by": "GRID3 (kevin.ukueku)",
          "frequency": "Weekly",
          "type": "Clothing Livestock Food Stuff Mixed",
          "local_name": "Ajala - Badagry",
          "days": [
            "Mon",
            "Tue",
            "Wed",
            "Thu",
            "Fri",
            "Sat",
            "Sun"
          ]
        },
        {
          "name": "Odan Ilogbo Eremi Community Market Phase 1, Badagry",
          "slug": "odan-ilogbo-eremi-community-market-phase-1-badagry",
          "coordinates": {
            "lat": 6.491037589,
            "lng": 3.022678676
          },
          "added_by": "GRID3 (kevin.ukueku)",
          "frequency": "Other",
          "type": "Clothing Livestock Food Stuff",
          "local_name": "Ilogbo",
          "days": [
            "Mon",
            "Tue",
            "Wed",
            "Thu",
            "Fri",
            "Sat",
            "Sun"
          ]
        },
        {
          "name": "Olohunda Market, Badagry",
          "slug": "olohunda-market-badagry",
          "coordinates": {
            "lat": 6.4999,
            "lng": 3.093731667
          },
          "added_by": "GRID3 (kevin.ukueku)",
          "frequency": "Weekly",
          "type": "Livestock Mixed",
          "local_name": "Olohunda",
          "days": [
            "Mon",
            "Tue",
            "Wed",
            "Thu",
            "Fri",
            "Sat"
          ]
        },
        {
          "name": "Owode Market, Badagry",
          "slug": "owode-market-badagry",
          "coordinates": {
            "lat": 6.421025,
            "lng": 2.70677
          },
          "added_by": "GRID3 (kevin.ukueku)",
          "frequency": "Other",
          "type": "Clothing Food Stuff Mixed",
          "local_name": "Owode",
          "days": [
            "Mon",
            "Tue",
            "Wed",
            "Thu",
            "Fri",
            "Sat",
            "Sun"
          ]
        },
        {
          "name": "Plumbing Material Market, Badagry",
          "slug": "plumbing-material-market-badagry",
          "coordinates": {
            "lat": 6.48526,
            "lng": 2.959261667
          },
          "added_by": "GRID3 (kevin.ukueku)",
          "frequency": "Weekly",
          "type": "Other",
          "local_name": "Ikoga road",
          "days": [
            "Mon",
            "Tue",
            "Wed",
            "Thu",
            "Fri",
            "Sat"
          ]
        },
        {
          "name": "Pots Market, Badagry",
          "slug": "pots-market-badagry",
          "coordinates": {
            "lat": 6.491318333,
            "lng": 2.957773333
          },
          "added_by": "GRID3 (kevin.ukueku)",
          "frequency": "Other",
          "type": "Food Stuff",
          "local_name": "Along Ikoga road",
          "days": [
            "Mon",
            "Tue",
            "Wed",
            "Thu",
            "Fri",
            "Sat"
          ]
        },
        {
          "name": "Sewede Akoro Plaza, Badagry",
          "slug": "sewede-akoro-plaza-badagry",
          "coordinates": {
            "lat": 6.461433333,
            "lng": 2.959915
          },
          "added_by": "GRID3 (kevin.ukueku)",
          "frequency": "Other",
          "type": "Mixed",
          "local_name": "Mowo",
          "days": [
            "Mon",
            "Tue",
            "Wed",
            "Thu",
            "Fri",
            "Sat"
          ]
        }
      ]
    },
    {
      "name": "Epe",
      "slug": "lagos-epe",
      "markets": [
        {
          "name": "Ajebowale Market Ibowon, Epe",
          "slug": "ajebowale-market-ibowon-epe",
          "coordinates": {
            "lat": 6.67332282,
            "lng": 3.998835962
          },
          "added_by": "GRID3 (kevin.ukueku)",
          "frequency": "Other",
          "type": "Mixed",
          "local_name": "Ibowon Market",
          "days": [
            "Mon",
            "Tue",
            "Wed",
            "Thu",
            "Fri",
            "Sat",
            "Sun"
          ]
        },
        {
          "name": "Araromi Market Odo Temu Epe",
          "slug": "araromi-market-odo-temu-epe",
          "coordinates": {
            "lat": 6.5994293,
            "lng": 3.9433005
          },
          "added_by": "GRID3 (kevin.ukueku)",
          "frequency": "Other",
          "type": "Livestock Food Stuff",
          "local_name": "Malara",
          "days": [
            "Mon",
            "Tue",
            "Wed",
            "Thu",
            "Fri",
            "Sat",
            "Sun"
          ]
        },
        {
          "name": "Ayetoro Market, Epe",
          "slug": "ayetoro-market-epe",
          "coordinates": {
            "lat": 6.57991,
            "lng": 3.97559
          },
          "added_by": "GRID3 (racheal.olarewaju)",
          "local_name": "Ayetoro"
        },
        {
          "name": "Erijin Market, Epe",
          "slug": "erijin-market-epe",
          "coordinates": {
            "lat": 6.612141667,
            "lng": 3.899971667
          },
          "added_by": "GRID3 (kevin.ukueku)",
          "frequency": "Monthly",
          "type": "Mixed",
          "local_name": "Wolf",
          "days": [
            "Mon",
            "Tue",
            "Wed",
            "Thu",
            "Fri",
            "Sat",
            "Sun"
          ]
        },
        {
          "name": "Fadama Project Market, Epe",
          "slug": "fadama-project-market-epe",
          "coordinates": {
            "lat": 6.6253683,
            "lng": 3.9855633
          },
          "added_by": "GRID3 (kevin.ukueku)",
          "frequency": "Other",
          "type": "Livestock Food Stuff",
          "local_name": "Eredo Naforija",
          "days": [
            "Mon",
            "Tue",
            "Wed",
            "Thu",
            "Fri",
            "Sat",
            "Sun"
          ]
        },
        {
          "name": "Itokin Market, Epe",
          "slug": "itokin-market-epe",
          "coordinates": {
            "lat": 6.6550953,
            "lng": 3.794061484
          },
          "added_by": "GRID3 (kevin.ukueku)",
          "frequency": "Weekly",
          "type": "Food Stuff",
          "local_name": "Itokin",
          "days": [
            "Sun"
          ]
        },
        {
          "name": "Mojoda Market, Epe",
          "slug": "mojoda-market-epe",
          "coordinates": {
            "lat": 6.677875317,
            "lng": 3.985353699
          },
          "added_by": "GRID3 (racheal.olarewaju)",
          "local_name": "Mojoda"
        },
        {
          "name": "Odo Ayandelu Market, Epe",
          "slug": "odo-ayandelu-market-epe",
          "coordinates": {
            "lat": 6.67661,
            "lng": 3.71254
          },
          "added_by": "GRID3 (racheal.olarewaju)",
          "local_name": "Odo Ayandelu"
        },
        {
          "name": "Oluwo Market, Epe",
          "slug": "oluwo-market-epe",
          "coordinates": {
            "lat": 6.582568333,
            "lng": 3.990241667
          },
          "added_by": "GRID3 (kevin.ukueku)",
          "frequency": "Weekly",
          "type": "Clothing Livestock Food Stuff Mixed",
          "local_name": "Oluwo",
          "days": [
            "Mon",
            "Tue",
            "Wed",
            "Thu",
            "Fri",
            "Sat",
            "Sun"
          ]
        },
        {
          "name": "Otta Market, Epe",
          "slug": "otta-market-epe",
          "coordinates": {
            "lat": 6.667939762,
            "lng": 3.735884396
          },
          "added_by": "GRID3 (kevin.ukueku)",
          "frequency": "Weekly",
          "type": "Clothing Livestock Food Stuff Mixed",
          "local_name": "Otta",
          "days": [
            "Mon",
            "Tue",
            "Wed",
            "Thu",
            "Fri",
            "Sat",
            "Sun"
          ]
        },
        {
          "name": "Owu Market, Epe",
          "slug": "owu-market-epe",
          "coordinates": {
            "lat": 6.6439,
            "lng": 3.71784
          },
          "added_by": "GRID3 (racheal.olarewaju)",
          "local_name": "Owu"
        },
        {
          "name": "Ram Market, Epe",
          "slug": "ram-market-epe",
          "coordinates": {
            "lat": 6.58676,
            "lng": 3.95106
          },
          "added_by": "GRID3 (racheal.olarewaju)",
          "local_name": "Ram"
        }
      ]
    },
    {
      "name": "Eti-Osa",
      "slug": "lagos-eti-osa",
      "markets": [
        {
          "name": "3 Mart, Eti-Osa",
          "slug": "3-mart-eti-osa",
          "coordinates": {
            "lat": 6.45734,
            "lng": 3.416286667
          },
          "added_by": "GRID3 (kevin.ukueku)",
          "frequency": "Monthly",
          "type": "Mixed",
          "local_name": "Ikoyi Dolphin Estate",
          "days": [
            "Mon",
            "Tue",
            "Wed",
            "Thu",
            "Fri",
            "Sat",
            "Sun"
          ]
        },
        {
          "name": "Aarons Mall, Eti-Osa",
          "slug": "aarons-mall-eti-osa",
          "coordinates": {
            "lat": 6.445970495,
            "lng": 3.470793944
          },
          "added_by": "GRID3 (kevin.ukueku)",
          "frequency": "Weekly",
          "type": "Clothing Mixed",
          "local_name": "Peninsula",
          "days": [
            "Mon",
            "Tue",
            "Wed",
            "Thu",
            "Fri",
            "Sat",
            "Sun"
          ]
        },
        {
          "name": "Ado Roundabout Market Langbasa, Eti-Osa",
          "slug": "ado-roundabout-market-langbasa-eti-osa",
          "coordinates": {
            "lat": 6.49789,
            "lng": 3.585831667
          },
          "added_by": "GRID3 (kevin.ukueku)",
          "frequency": "Other",
          "type": "Clothing Livestock Food Stuff Mixed",
          "local_name": "Langbasa",
          "days": [
            "Mon",
            "Tue",
            "Wed",
            "Thu",
            "Fri",
            "Sat",
            "Sun"
          ]
        },
        {
          "name": "Aiyetoro Market, Eti-Osa",
          "slug": "aiyetoro-market-eti-osa",
          "coordinates": {
            "lat": 6.46808,
            "lng": 3.56349
          },
          "added_by": "GRID3 (racheal.olarewaju)",
          "local_name": "Aiyetoro"
        },
        {
          "name": "Ajah Market, Eti-Osa",
          "slug": "ajah-market",
          "coordinates": {
            "lat": 6.4698,
            "lng": 3.5986
          },
          "added_by": "ifihan"
        },
        {
          "name": "Ajah Ultra Modern Market, Eti-Osa",
          "slug": "ajah-ultra-modern-market-eti-osa",
          "coordinates": {
            "lat": 6.46761,
            "lng": 3.56415
          },
          "added_by": "GRID3 (racheal.olarewaju)",
          "local_name": "Ajah Ultra Modern"
        },
        {
          "name": "Alubarika Plano Market, Eti-Osa",
          "slug": "alubarika-plano-market-eti-osa",
          "coordinates": {
            "lat": 6.436743333,
            "lng": 3.511035
          },
          "added_by": "GRID3 (kevin.ukueku)",
          "frequency": "Weekly",
          "type": "Other",
          "local_name": "Lekki",
          "days": [
            "Mon",
            "Tue",
            "Wed",
            "Thu",
            "Fri",
            "Sat"
          ]
        },
        {
          "name": "Bakky Plaza, Eti-Osa",
          "slug": "bakky-plaza-eti-osa",
          "coordinates": {
            "lat": 6.438435278,
            "lng": 3.517098798
          },
          "added_by": "GRID3 (kevin.ukueku)",
          "frequency": "Weekly",
          "type": "Mixed",
          "local_name": "Lekki",
          "days": [
            "Mon",
            "Tue",
            "Wed",
            "Thu",
            "Fri",
            "Sat"
          ]
        },
        {
          "name": "Blenco, Eti-Osa",
          "slug": "blenco-eti-osa",
          "coordinates": {
            "lat": 6.474715,
            "lng": 3.619216667
          },
          "added_by": "GRID3 (kevin.ukueku)",
          "frequency": "Monthly",
          "type": "Clothing Food Stuff Mixed",
          "local_name": "Sangotedo",
          "days": [
            "Mon",
            "Tue",
            "Wed",
            "Thu",
            "Fri",
            "Sat",
            "Sun"
          ]
        },
        {
          "name": "Brasas Place, Eti-Osa",
          "slug": "brasas-place-eti-osa",
          "coordinates": {
            "lat": 6.447476808,
            "lng": 3.472625525
          },
          "added_by": "GRID3 (kevin.ukueku)",
          "frequency": "Weekly",
          "type": "Clothing Electronic Spare Parts Mixed",
          "local_name": "Peninsula",
          "days": [
            "Mon",
            "Tue",
            "Wed",
            "Thu",
            "Fri",
            "Sat",
            "Sun"
          ]
        },
        {
          "name": "Chief Muritala Odofin Complex, Eti-Osa",
          "slug": "chief-muritala-odofin-complex-eti-osa",
          "coordinates": {
            "lat": 6.438163646,
            "lng": 3.515044718
          },
          "added_by": "GRID3 (kevin.ukueku)",
          "frequency": "Weekly",
          "type": "Mixed",
          "local_name": "Lekki",
          "days": [
            "Mon",
            "Tue",
            "Wed",
            "Thu",
            "Fri",
            "Sat",
            "Sun"
          ]
        },
        {
          "name": "Chief Muritala Odofin Shopping Compplex, Eti-Osa",
          "slug": "chief-muritala-odofin-shopping-compplex-eti-osa",
          "coordinates": {
            "lat": 6.438312232,
            "lng": 3.516014334
          },
          "added_by": "GRID3 (kevin.ukueku)",
          "frequency": "Weekly",
          "type": "Mixed",
          "local_name": "Lekki",
          "days": [
            "Mon",
            "Tue",
            "Wed",
            "Thu",
            "Fri",
            "Sat",
            "Sun"
          ]
        },
        {
          "name": "Credo, Eti-Osa",
          "slug": "credo-eti-osa",
          "coordinates": {
            "lat": 6.439566616,
            "lng": 3.488448929
          },
          "added_by": "GRID3 (kevin.ukueku)",
          "frequency": "Monthly",
          "type": "Mixed",
          "local_name": "Ikate elegushi",
          "days": [
            "Mon",
            "Tue",
            "Wed",
            "Thu",
            "Fri",
            "Sat",
            "Sun"
          ]
        },
        {
          "name": "Destiny Plaza Market Sangotedo, Eti-Osa",
          "slug": "destiny-plaza-market-sangotedo-eti-osa",
          "coordinates": {
            "lat": 6.472546394,
            "lng": 3.62735192
          },
          "added_by": "GRID3 (kevin.ukueku)",
          "frequency": "Other",
          "type": "Clothing Livestock Electronic Spare Parts Food Stuff Mixed",
          "local_name": "Sangotedo",
          "days": [
            "Mon",
            "Tue",
            "Wed",
            "Thu",
            "Fri",
            "Sat"
          ]
        },
        {
          "name": "Divine Grace Plaza, Eti-Osa",
          "slug": "divine-grace-plaza-eti-osa",
          "coordinates": {
            "lat": 6.442785212,
            "lng": 3.51608801
          },
          "added_by": "GRID3 (kevin.ukueku)",
          "frequency": "Other",
          "type": "Other",
          "local_name": "Agiran road",
          "days": [
            "Mon",
            "Tue",
            "Wed",
            "Thu",
            "Fri",
            "Sat",
            "Sun"
          ]
        },
        {
          "name": "Elegushi International Market, Eti-Osa",
          "slug": "elegushi-international-market-eti-osa",
          "coordinates": {
            "lat": 6.43338,
            "lng": 3.50615
          },
          "added_by": "GRID3 (racheal.olarewaju)",
          "local_name": "Elegushi International"
        },
        {
          "name": "Estate Plaza, Eti-Osa",
          "slug": "estate-plaza-eti-osa",
          "coordinates": {
            "lat": 6.473316667,
            "lng": 3.573668333
          },
          "added_by": "GRID3 (kevin.ukueku)",
          "frequency": "Weekly",
          "type": "Clothing Electronic Spare Parts Mixed",
          "local_name": "Thomas",
          "days": [
            "Mon",
            "Tue",
            "Wed",
            "Thu",
            "Fri",
            "Sat",
            "Sun"
          ]
        },
        {
          "name": "Evron Food Store, Eti-Osa",
          "slug": "evron-food-store-eti-osa",
          "coordinates": {
            "lat": 6.456308323,
            "lng": 3.530318698
          },
          "added_by": "GRID3 (kevin.ukueku)",
          "frequency": "Monthly",
          "type": "Livestock Food Stuff",
          "local_name": "Chevron",
          "days": [
            "Mon",
            "Tue",
            "Wed",
            "Thu",
            "Fri",
            "Sat",
            "Sun"
          ]
        },
        {
          "name": "First Gate Market, Eti-Osa",
          "slug": "first-gate-market-eti-osa",
          "coordinates": {
            "lat": 6.435548333,
            "lng": 3.50275
          },
          "added_by": "GRID3 (kevin.ukueku)",
          "frequency": "Weekly",
          "type": "Food Stuff",
          "local_name": "Jakande ist gate market",
          "days": [
            "Mon",
            "Tue",
            "Wed",
            "Thu",
            "Fri",
            "Sat",
            "Sun"
          ]
        },
        {
          "name": "Haret, Eti-Osa",
          "slug": "haret-eti-osa",
          "coordinates": {
            "lat": 6.474441667,
            "lng": 3.620541667
          },
          "added_by": "GRID3 (kevin.ukueku)",
          "frequency": "Monthly",
          "type": "Clothing Electronic Spare Parts Mixed",
          "local_name": "Sangotedo",
          "days": [
            "Mon",
            "Tue",
            "Wed",
            "Thu",
            "Fri",
            "Sat"
          ]
        },
        {
          "name": "Ikota Market 337, Eti-Osa",
          "slug": "ikota-market-337-eti-osa",
          "coordinates": {
            "lat": 6.451905,
            "lng": 3.556641667
          },
          "added_by": "GRID3 (kevin.ukueku)",
          "frequency": "Weekly",
          "type": "Clothing Livestock Electronic Spare Parts Food Stuff Mixed",
          "local_name": "Bola gas road",
          "days": [
            "Mon",
            "Tue",
            "Wed",
            "Thu",
            "Fri",
            "Sat",
            "Sun"
          ]
        },
        {
          "name": "Ikota Market 354, Eti-Osa",
          "slug": "ikota-market-354-eti-osa",
          "coordinates": {
            "lat": 6.464805,
            "lng": 3.558921667
          },
          "added_by": "GRID3 (kevin.ukueku)",
          "frequency": "Weekly",
          "type": "Clothing Livestock Food Stuff Mixed",
          "local_name": "Ikota market",
          "days": [
            "Mon",
            "Tue",
            "Wed",
            "Thu",
            "Fri",
            "Sat",
            "Sun"
          ]
        },
        {
          "name": "Ilaje Market, Eti-Osa",
          "slug": "ilaje-market-eti-osa",
          "coordinates": {
            "lat": 6.466733504,
            "lng": 3.562037142
          },
          "added_by": "GRID3 (kevin.ukueku)",
          "frequency": "Other",
          "type": "Mixed",
          "local_name": "Nil",
          "days": [
            "Mon",
            "Tue",
            "Wed",
            "Thu",
            "Fri",
            "Sat"
          ]
        },
        {
          "name": "Ile Anu Market, Eti-Osa",
          "slug": "ile-anu-market-eti-osa",
          "coordinates": {
            "lat": 6.43735,
            "lng": 3.50977
          },
          "added_by": "GRID3 (racheal.olarewaju)",
          "local_name": "Ile Anu"
        },
        {
          "name": "Kobi Tianid, Eti-Osa",
          "slug": "kobi-tianid-eti-osa",
          "coordinates": {
            "lat": 6.474615,
            "lng": 3.62067
          },
          "added_by": "GRID3 (kevin.ukueku)",
          "frequency": "Monthly",
          "type": "Clothing Electronic Spare Parts Mixed",
          "local_name": "Sangotedo",
          "days": [
            "Mon",
            "Tue",
            "Wed",
            "Thu",
            "Fri",
            "Sat"
          ]
        },
        {
          "name": "Lekki Market, Eti-Osa",
          "slug": "lekki-market",
          "coordinates": {
            "lat": 6.4698,
            "lng": 3.5852
          },
          "added_by": "ifihan"
        },
        {
          "name": "Lucky Best, Eti-Osa",
          "slug": "lucky-best-eti-osa",
          "coordinates": {
            "lat": 6.438497268,
            "lng": 3.516436379
          },
          "added_by": "GRID3 (kevin.ukueku)",
          "frequency": "Monthly",
          "type": "Mixed",
          "local_name": "Ajiran",
          "days": [
            "Mon",
            "Tue",
            "Wed",
            "Thu",
            "Fri",
            "Sat"
          ]
        },
        {
          "name": "Lush Mall, Eti-Osa",
          "slug": "lush-mall-eti-osa",
          "coordinates": {
            "lat": 6.448143152,
            "lng": 3.473241773
          },
          "added_by": "GRID3 (kevin.ukueku)",
          "frequency": "Weekly",
          "type": "Clothing Livestock Electronic Spare Parts",
          "local_name": "Peninsula",
          "days": [
            "Mon",
            "Tue",
            "Wed",
            "Thu",
            "Fri",
            "Sat",
            "Sun"
          ]
        },
        {
          "name": "Mayamaya Centre, Eti-Osa",
          "slug": "mayamaya-centre-eti-osa",
          "coordinates": {
            "lat": 6.437671087,
            "lng": 3.51075293
          },
          "added_by": "GRID3 (kevin.ukueku)",
          "frequency": "Weekly",
          "type": "Mixed",
          "local_name": "Osapa London",
          "days": [
            "Mon",
            "Tue",
            "Wed",
            "Thu",
            "Fri",
            "Sat"
          ]
        },
        {
          "name": "Melita, Eti-Osa",
          "slug": "melita-eti-osa",
          "coordinates": {
            "lat": 6.433748333,
            "lng": 3.485943333
          },
          "added_by": "GRID3 (kevin.ukueku)",
          "frequency": "Monthly",
          "type": "Mixed",
          "local_name": "Ikate",
          "days": [
            "Mon",
            "Tue",
            "Wed",
            "Thu",
            "Fri",
            "Sat"
          ]
        },
        {
          "name": "New Cruse Household, Eti-Osa",
          "slug": "new-cruse-household-eti-osa",
          "coordinates": {
            "lat": 6.458366667,
            "lng": 3.419873333
          },
          "added_by": "GRID3 (kevin.ukueku)",
          "frequency": "Monthly",
          "type": "Mixed",
          "local_name": "Dolphin estate",
          "days": [
            "Mon",
            "Tue",
            "Wed",
            "Thu",
            "Fri",
            "Sat",
            "Sun"
          ]
        },
        {
          "name": "Ogombo Ultra Modern Market, Eti-Osa",
          "slug": "ogombo-ultra-modern-market-eti-osa",
          "coordinates": {
            "lat": 6.4493,
            "lng": 3.612205
          },
          "added_by": "GRID3 (kevin.ukueku)",
          "frequency": "Other",
          "type": "Mixed",
          "local_name": "Nil",
          "days": [
            "Mon",
            "Tue",
            "Wed",
            "Thu",
            "Fri",
            "Sat"
          ]
        },
        {
          "name": "Ojomu Royal Market, Eti-Osa",
          "slug": "ojomu-royal-market-eti-osa",
          "coordinates": {
            "lat": 6.438387976,
            "lng": 3.52609956
          },
          "added_by": "GRID3 (kevin.ukueku)",
          "frequency": "Weekly",
          "type": "Mixed",
          "local_name": "Efon Settlement",
          "days": [
            "Mon",
            "Tue",
            "Wed",
            "Thu",
            "Fri",
            "Sat",
            "Sun"
          ]
        },
        {
          "name": "Oke Ira Kereke Market, Eti-Osa",
          "slug": "oke-ira-kereke-market-eti-osa",
          "coordinates": {
            "lat": 6.49265,
            "lng": 3.58364
          },
          "added_by": "GRID3 (racheal.olarewaju)",
          "local_name": "Oke Ira Kereke"
        },
        {
          "name": "Olumegbon Palace, Eti-Osa",
          "slug": "olumegbon-palace-eti-osa",
          "coordinates": {
            "lat": 6.470020389,
            "lng": 3.565417303
          },
          "added_by": "GRID3 (kevin.ukueku)",
          "frequency": "Weekly",
          "type": "Mixed",
          "local_name": "Ajah",
          "days": [
            "Mon",
            "Tue",
            "Wed",
            "Thu",
            "Fri",
            "Sat",
            "Sun"
          ]
        },
        {
          "name": "Oniru Market Off Akiogun, Eti-Osa",
          "slug": "oniru-market-off-akiogun-eti-osa",
          "coordinates": {
            "lat": 6.429761667,
            "lng": 3.456926667
          },
          "added_by": "GRID3 (kevin.ukueku)",
          "frequency": "Other",
          "type": "Clothing Livestock Electronic Spare Parts Food Stuff Mixed",
          "local_name": "Eti ose",
          "days": [
            "Mon",
            "Tue",
            "Wed",
            "Thu",
            "Fri",
            "Sat",
            "Sun"
          ]
        },
        {
          "name": "Orile Ilasan Market, Eti-Osa",
          "slug": "orile-ilasan-market-eti-osa",
          "coordinates": {
            "lat": 6.429928333,
            "lng": 3.494205
          },
          "added_by": "GRID3 (kevin.ukueku)",
          "frequency": "Weekly",
          "type": "Mixed",
          "local_name": "Ilasan market",
          "days": [
            "Mon",
            "Wed",
            "Fri"
          ]
        },
        {
          "name": "Penny Mall, Eti-Osa",
          "slug": "penny-mall-eti-osa",
          "coordinates": {
            "lat": 6.432128333,
            "lng": 3.468353333
          },
          "added_by": "GRID3 (kevin.ukueku)",
          "frequency": "Monthly",
          "type": "Clothing Food Stuff",
          "local_name": "Marwa",
          "days": [
            "Mon",
            "Tue",
            "Wed",
            "Thu",
            "Fri",
            "Sat"
          ]
        },
        {
          "name": "Phemos Mart, Eti-Osa",
          "slug": "phemos-mart-eti-osa",
          "coordinates": {
            "lat": 6.447530878,
            "lng": 3.517763616
          },
          "added_by": "GRID3 (kevin.ukueku)",
          "frequency": "Monthly",
          "type": "Clothing Food Stuff Mixed",
          "local_name": "Ajah",
          "days": [
            "Mon",
            "Tue",
            "Wed",
            "Thu",
            "Fri",
            "Sat",
            "Sun"
          ]
        },
        {
          "name": "Pills And Tabs, Eti-Osa",
          "slug": "pills-and-tabs-eti-osa",
          "coordinates": {
            "lat": 6.436128333,
            "lng": 3.48961
          },
          "added_by": "GRID3 (kevin.ukueku)",
          "frequency": "Monthly",
          "type": "Mixed",
          "local_name": "Ikate elegushi",
          "days": [
            "Mon",
            "Tue",
            "Wed",
            "Thu",
            "Fri",
            "Sat",
            "Sun"
          ]
        },
        {
          "name": "Plazaquintessence, Eti-Osa",
          "slug": "plazaquintessence-eti-osa",
          "coordinates": {
            "lat": 6.455823333,
            "lng": 3.441115
          },
          "added_by": "GRID3 (kevin.ukueku)",
          "frequency": "Other",
          "type": "Clothing Other",
          "local_name": "Park view gate",
          "days": [
            "Mon",
            "Tue",
            "Wed",
            "Thu",
            "Fri",
            "Sat"
          ]
        },
        {
          "name": "Powa Bus Stop Market, Eti-Osa",
          "slug": "powa-bus-stop-market-eti-osa",
          "coordinates": {
            "lat": 6.443905,
            "lng": 3.428728333
          },
          "added_by": "GRID3 (kevin.ukueku)",
          "frequency": "Weekly",
          "type": "Mixed",
          "local_name": "Powa shopping center",
          "days": [
            "Mon",
            "Tue",
            "Wed",
            "Thu",
            "Fri",
            "Sat"
          ]
        },
        {
          "name": "Prince Ebeano, Eti-Osa",
          "slug": "prince-ebeano-eti-osa",
          "coordinates": {
            "lat": 6.454846311,
            "lng": 3.530238414
          },
          "added_by": "GRID3 (kevin.ukueku)",
          "frequency": "Monthly",
          "type": "Mixed",
          "local_name": "Chevron",
          "days": [
            "Mon",
            "Tue",
            "Wed",
            "Thu",
            "Fri",
            "Sat",
            "Sun"
          ]
        },
        {
          "name": "Queens Shopping Center Sangotedo, Eti-Osa",
          "slug": "queens-shopping-center-sangotedo-eti-osa",
          "coordinates": {
            "lat": 6.472300046,
            "lng": 3.629106879
          },
          "added_by": "GRID3 (kevin.ukueku)",
          "frequency": "Weekly",
          "type": "Clothing Livestock Electronic Spare Parts Food Stuff Mixed",
          "local_name": "Sangotedo",
          "days": [
            "Mon",
            "Tue",
            "Wed",
            "Thu",
            "Fri",
            "Sat"
          ]
        },
        {
          "name": "Richland Mall, Eti-Osa",
          "slug": "richland-mall-eti-osa",
          "coordinates": {
            "lat": 6.4749118,
            "lng": 3.6050792
          },
          "added_by": "GRID3 (kevin.ukueku)",
          "frequency": "Other",
          "type": "Mixed",
          "local_name": "Its on epe express road, before, olokonla bus stop",
          "days": [
            "Mon",
            "Tue",
            "Wed",
            "Thu",
            "Fri",
            "Sat"
          ]
        },
        {
          "name": "Royal Plaza Shopping Mall, Eti-Osa",
          "slug": "royal-plaza-shopping-mall-eti-osa",
          "coordinates": {
            "lat": 6.4537579,
            "lng": 3.5184351
          },